X,Y,STATE,NAME,LAT,LON,Start_Time,Full_Time,End_Time,ObjectId
-85.527029,33.091627,AL,Abanda,33.091627,-85.527029,2024/02/18 17:43:00+00,2024/02/18 19:02:00+00,2024/02/18 20:18:50+00,1
-85.259121,31.564706,AL,Abbeville,31.564706,-85.259121,2024/02/18 17:41:40+00,2024/02/18 19:00:30+00,2024/02/18 20:17:20+00,2
-86.971527,33.602315,AL,Adamsville,33.602315,-86.971527,2024/02/18 17:41:00+00,2024/02/18 19:00:00+00,2024/02/18 20:17:30+00,3
-87.178004,34.202681,AL,Addison,34.202681,-87.178004,2024/02/18 17:41:30+00,2024/02/18 19:00:30+00,2024/02/18 20:18:00+00,4
-87.740899,32.879066,AL,Akron,32.879066,-87.740899,2024/02/18 17:38:40+00,2024/02/18 18:58:00+00,2024/02/18 20:15:50+00,5
-86.82308,33.214355,AL,Alabaster,33.214355,-86.82308,2024/02/18 17:40:40+00,2024/02/18 18:59:50+00,2024/02/18 20:17:20+00,6
-86.21066,34.26313,AL,Albertville,34.26313,-86.21066,2024/02/18 17:43:20+00,2024/02/18 19:02:10+00,2024/02/18 20:19:20+00,7
-85.940589,32.916719,AL,Alexander City,32.916719,-85.940589,2024/02/18 17:42:00+00,2024/02/18 19:01:00+00,2024/02/18 20:18:10+00,8
-85.872008,33.760819,AL,Alexandria,33.760819,-85.872008,2024/02/18 17:43:10+00,2024/02/18 19:02:10+00,2024/02/18 20:19:10+00,9
-88.159344,33.123706,AL,Aliceville,33.123706,-88.159344,2024/02/18 17:38:10+00,2024/02/18 18:57:30+00,2024/02/18 20:15:30+00,10
-86.516109,33.907623,AL,Allgood,33.907623,-86.516109,2024/02/18 17:42:10+00,2024/02/18 19:01:20+00,2024/02/18 20:18:30+00,11
-86.305179,34.040014,AL,Altoona,34.040014,-86.305179,2024/02/18 17:42:50+00,2024/02/18 19:01:50+00,2024/02/18 20:19:00+00,12
-86.478031,31.309436,AL,Andalusia,31.309436,-86.478031,2024/02/18 17:38:50+00,2024/02/18 18:58:00+00,2024/02/18 20:15:30+00,13
-87.274274,34.915675,AL,Anderson,34.915675,-87.274274,2024/02/18 17:42:20+00,2024/02/18 19:01:10+00,2024/02/18 20:18:30+00,14
-85.810891,33.673469,AL,Anniston,33.673469,-85.810891,2024/02/18 17:43:20+00,2024/02/18 19:02:10+00,2024/02/18 20:19:10+00,15
-86.501167,34.332387,AL,Arab,34.332387,-86.501167,2024/02/18 17:42:50+00,2024/02/18 19:01:50+00,2024/02/18 20:19:00+00,16
-86.829022,34.987838,AL,Ardmore,34.987838,-86.829022,2024/02/18 17:43:10+00,2024/02/18 19:02:00+00,2024/02/18 20:19:10+00,17
-86.505281,33.691018,AL,Argo,33.691018,-86.505281,2024/02/18 17:42:00+00,2024/02/18 19:01:00+00,2024/02/18 20:18:20+00,18
-85.713061,31.597772,AL,Ariton,31.597772,-85.713061,2024/02/18 17:40:50+00,2024/02/18 18:59:40+00,2024/02/18 20:16:50+00,19
-87.217831,34.076234,AL,Arley,34.076234,-87.217831,2024/02/18 17:41:10+00,2024/02/18 19:00:20+00,2024/02/18 20:17:50+00,20
-85.236236,31.185284,AL,Ashford,31.185284,-85.236236,2024/02/18 17:41:10+00,2024/02/18 19:00:00+00,2024/02/18 20:16:50+00,21
-85.833706,33.269892,AL,Ashland,33.269892,-85.833706,2024/02/18 17:42:40+00,2024/02/18 19:01:40+00,2024/02/18 20:18:40+00,22
-86.270015,33.835197,AL,Ashville,33.835197,-86.270015,2024/02/18 17:42:30+00,2024/02/18 19:01:30+00,2024/02/18 20:18:40+00,23
-86.950799,34.779021,AL,Athens,34.779021,-86.950799,2024/02/18 17:42:40+00,2024/02/18 19:01:40+00,2024/02/18 20:18:50+00,24
-87.457798,31.124067,AL,Atmore,31.124067,-87.457798,2024/02/18 17:36:40+00,2024/02/18 18:56:00+00,2024/02/18 20:14:00+00,25
-86.121037,33.986189,AL,Attalla,33.986189,-86.121037,2024/02/18 17:43:10+00,2024/02/18 19:02:00+00,2024/02/18 20:19:10+00,26
-85.494746,32.607806,AL,Auburn,32.607806,-85.494746,2024/02/18 17:42:30+00,2024/02/18 19:01:20+00,2024/02/18 20:18:20+00,27
-86.658752,32.432563,AL,Autaugaville,32.432563,-86.658752,2024/02/18 17:40:00+00,2024/02/18 18:59:10+00,2024/02/18 20:16:50+00,28
-85.279211,31.179727,AL,Avon,31.179727,-85.279211,2024/02/18 17:41:10+00,2024/02/18 18:59:50+00,2024/02/18 20:16:50+00,29
-88.02262,30.922171,AL,Axis,30.922171,-88.02262,2024/02/18 17:35:20+00,2024/02/18 18:54:40+00,2024/02/18 20:13:00+00,30
-86.319437,31.302083,AL,Babbie,31.302083,-86.319437,2024/02/18 17:39:10+00,2024/02/18 18:58:10+00,2024/02/18 20:15:40+00,31
-86.608788,34.260858,AL,Baileyton,34.260858,-86.608788,2024/02/18 17:42:30+00,2024/02/18 19:01:30+00,2024/02/18 20:18:50+00,32
-85.295408,31.776923,AL,Bakerhill,31.776923,-85.295408,2024/02/18 17:41:50+00,2024/02/18 19:00:40+00,2024/02/18 20:17:40+00,33
-85.801478,34.023047,AL,Ballplay,34.023047,-85.801478,2024/02/18 17:43:40+00,2024/02/18 19:02:40+00,2024/02/18 20:19:30+00,34
-85.836434,31.813264,AL,Banks,31.813264,-85.836434,2024/02/18 17:40:40+00,2024/02/18 18:59:40+00,2024/02/18 20:17:00+00,35
-87.791306,30.894436,AL,Bay Minette,30.894436,-87.791306,2024/02/18 17:35:50+00,2024/02/18 18:55:10+00,2024/02/18 20:13:20+00,36
-88.263271,30.407586,AL,Bayou La Batre,30.407586,-88.263271,2024/02/18 17:34:10+00,2024/02/18 18:53:30+00,2024/02/18 20:12:00+00,37
-87.713399,34.255481,AL,Bear Creek,34.255481,-87.713399,2024/02/18 17:40:40+00,2024/02/18 18:59:40+00,2024/02/18 20:17:20+00,38
-87.209046,31.733309,AL,Beatrice,31.733309,-87.209046,2024/02/18 17:38:00+00,2024/02/18 18:57:20+00,2024/02/18 20:15:10+00,39
-88.021778,33.935411,AL,Beaverton,33.935411,-88.021778,2024/02/18 17:39:40+00,2024/02/18 18:58:50+00,2024/02/18 20:16:40+00,40
-87.861678,34.47454,AL,Belgreen,34.47454,-87.861678,2024/02/18 17:40:40+00,2024/02/18 18:59:40+00,2024/02/18 20:17:20+00,41
-87.92861,33.651641,AL,Belk,33.651641,-87.92861,2024/02/18 17:39:20+00,2024/02/18 18:58:40+00,2024/02/18 20:16:30+00,42
-88.131481,32.463658,AL,Bellamy,32.463658,-88.131481,2024/02/18 17:37:20+00,2024/02/18 18:56:40+00,2024/02/18 20:14:50+00,43
-88.10594,30.489492,AL,Belle Fontaine,30.489492,-88.10594,2024/02/18 17:34:30+00,2024/02/18 18:54:00+00,2024/02/18 20:12:20+00,44
-86.817546,32.307931,AL,Benton,32.307931,-86.817546,2024/02/18 17:39:30+00,2024/02/18 18:58:50+00,2024/02/18 20:16:20+00,45
-86.748955,34.185005,AL,Berlin,34.185005,-86.748955,2024/02/18 17:42:10+00,2024/02/18 19:01:10+00,2024/02/18 20:18:30+00,46
-87.609311,33.666702,AL,Berry,33.666702,-87.609311,2024/02/18 17:40:00+00,2024/02/18 18:59:10+00,2024/02/18 20:16:50+00,47
-86.971522,33.370858,AL,Bessemer,33.370858,-86.971522,2024/02/18 17:40:40+00,2024/02/18 18:59:50+00,2024/02/18 20:17:20+00,48
-86.706713,32.664711,AL,Billingsley,32.664711,-86.706713,2024/02/18 17:40:10+00,2024/02/18 18:59:20+00,2024/02/18 20:16:50+00,49
-86.797036,33.527174,AL,Birmingham,33.527174,-86.797036,2024/02/18 17:41:10+00,2024/02/18 19:00:20+00,2024/02/18 20:17:40+00,50
-85.74442,31.00977,AL,Black,31.00977,-85.74442,2024/02/18 17:40:00+00,2024/02/18 18:58:50+00,2024/02/18 20:16:00+00,51
-86.583918,34.075838,AL,Blountsville,34.075838,-86.583918,2024/02/18 17:42:20+00,2024/02/18 19:01:20+00,2024/02/18 20:18:30+00,52
-86.182436,32.4989,AL,Blue Ridge,32.4989,-86.182436,2024/02/18 17:41:00+00,2024/02/18 19:00:00+00,2024/02/18 20:17:20+00,53
-85.503526,31.663516,AL,Blue Springs,31.663516,-85.503526,2024/02/18 17:41:20+00,2024/02/18 19:00:10+00,2024/02/18 20:17:10+00,54
-86.155151,34.19902,AL,Boaz,34.19902,-86.155151,2024/02/18 17:43:20+00,2024/02/18 19:02:10+00,2024/02/18 20:19:20+00,55
-88.02859,32.768081,AL,Boligee,32.768081,-88.02859,2024/02/18 17:37:50+00,2024/02/18 18:57:10+00,2024/02/18 20:15:20+00,56
-86.327148,33.25937,AL,Bon Air,33.25937,-86.327148,2024/02/18 17:41:40+00,2024/02/18 19:00:40+00,2024/02/18 20:18:00+00,57
-87.72439,30.318246,AL,Bon Secour,30.318246,-87.72439,2024/02/18 17:35:00+00,2024/02/18 18:54:20+00,2024/02/18 20:12:30+00,58
-87.294343,32.068375,AL,Boykin,32.068375,-87.294343,2024/02/18 17:38:20+00,2024/02/18 18:57:30+00,2024/02/18 20:15:30+00,59
-86.256784,31.581992,AL,Brantley,31.581992,-86.256784,2024/02/18 17:39:40+00,2024/02/18 18:58:50+00,2024/02/18 20:16:10+00,60
-86.882522,33.219303,AL,Brantleyville,33.219303,-86.882522,2024/02/18 17:40:30+00,2024/02/18 18:59:40+00,2024/02/18 20:17:20+00,61
-87.172088,32.944893,AL,Brent,32.944893,-87.172088,2024/02/18 17:39:40+00,2024/02/18 18:59:00+00,2024/02/18 20:16:40+00,62
-87.076583,31.109175,AL,Brewton,31.109175,-87.076583,2024/02/18 17:37:20+00,2024/02/18 18:56:40+00,2024/02/18 20:14:30+00,63
-85.723765,34.949312,AL,Bridgeport,34.949312,-85.723765,2024/02/18 17:45:00+00,2024/02/18 19:03:50+00,2024/02/18 20:20:30+00,64
-86.945404,33.439551,AL,Brighton,33.439551,-86.945404,2024/02/18 17:40:50+00,2024/02/18 19:00:00+00,2024/02/18 20:17:30+00,65
-87.769047,34.025671,AL,Brilliant,34.025671,-87.769047,2024/02/18 17:40:10+00,2024/02/18 18:59:20+00,2024/02/18 20:17:00+00,66
-86.240993,34.109216,AL,Bristow Cove,34.109216,-86.240993,2024/02/18 17:43:00+00,2024/02/18 19:02:00+00,2024/02/18 20:19:00+00,67
-86.685262,33.438035,AL,Brook Highland,33.438035,-86.685262,2024/02/18 17:41:20+00,2024/02/18 19:00:20+00,2024/02/18 20:17:50+00,68
-86.906314,33.634617,AL,Brookside,33.634617,-86.906314,2024/02/18 17:41:10+00,2024/02/18 19:00:20+00,2024/02/18 20:17:40+00,69
-87.331488,33.239842,AL,Brookwood,33.239842,-87.331488,2024/02/18 17:39:50+00,2024/02/18 18:59:00+00,2024/02/18 20:16:50+00,70
-85.532112,34.365728,AL,Broomtown,34.365728,-85.532112,2024/02/18 17:44:40+00,2024/02/18 19:03:30+00,2024/02/18 20:20:10+00,71
-85.81755,31.717639,AL,Brundidge,31.717639,-85.81755,2024/02/18 17:40:40+00,2024/02/18 18:59:40+00,2024/02/18 20:16:50+00,72
-88.026385,31.016881,AL,Bucks,31.016881,-88.026385,2024/02/18 17:35:20+00,2024/02/18 18:54:50+00,2024/02/18 20:13:10+00,73
-88.210781,32.096479,AL,Butler,32.096479,-88.210781,2024/02/18 17:36:40+00,2024/02/18 18:56:00+00,2024/02/18 20:14:20+00,74
-86.745644,33.122319,AL,Calera,33.122319,-86.745644,2024/02/18 17:40:50+00,2024/02/18 19:00:00+00,2024/02/18 20:17:20+00,75
-88.021549,31.149898,AL,Calvert,31.149898,-88.021549,2024/02/18 17:35:40+00,2024/02/18 18:55:10+00,2024/02/18 20:13:20+00,76
-87.28895,31.998493,AL,Camden,31.998493,-87.28895,2024/02/18 17:38:10+00,2024/02/18 18:57:30+00,2024/02/18 20:15:20+00,77
-85.655833,32.797327,AL,Camp Hill,32.797327,-85.655833,2024/02/18 17:42:20+00,2024/02/18 19:01:20+00,2024/02/18 20:18:20+00,78
-87.522078,33.894991,AL,Carbon Hill,33.894991,-87.522078,2024/02/18 17:40:30+00,2024/02/18 18:59:40+00,2024/02/18 20:17:10+00,79
-86.930637,33.64729,AL,Cardiff,33.64729,-86.930637,2024/02/18 17:41:10+00,2024/02/18 19:00:10+00,2024/02/18 20:17:40+00,80
-86.124073,34.114451,AL,Carlisle-Rockledge,34.114451,-86.124073,2024/02/18 17:43:20+00,2024/02/18 19:02:10+00,2024/02/18 20:19:10+00,81
-87.835666,31.348571,AL,Carlton,31.348571,-87.835666,2024/02/18 17:36:20+00,2024/02/18 18:55:40+00,2024/02/18 20:13:50+00,82
-86.521001,31.23415,AL,Carolina,31.23415,-86.521001,2024/02/18 17:38:40+00,2024/02/18 18:57:50+00,2024/02/18 20:15:20+00,83
-88.095071,33.261903,AL,Carrollton,33.261903,-88.095071,2024/02/18 17:38:30+00,2024/02/18 18:57:50+00,2024/02/18 20:15:50+00,84
-87.029129,31.299678,AL,Castleberry,31.299678,-87.029129,2024/02/18 17:37:50+00,2024/02/18 18:57:00+00,2024/02/18 20:14:50+00,85
-87.469978,32.18617,AL,Catherine,32.18617,-87.469978,2024/02/18 17:38:10+00,2024/02/18 18:57:30+00,2024/02/18 20:15:20+00,86
-85.588565,34.221422,AL,Cedar Bluff,34.221422,-85.588565,2024/02/18 17:44:20+00,2024/02/18 19:03:10+00,2024/02/18 20:20:00+00,87
-86.684567,33.643903,AL,Center Point,33.643903,-86.684567,2024/02/18 17:41:30+00,2024/02/18 19:00:40+00,2024/02/18 20:18:00+00,88
-85.671683,34.153059,AL,Centre,34.153059,-85.671683,2024/02/18 17:44:10+00,2024/02/18 19:03:00+00,2024/02/18 20:19:50+00,89
-87.132043,32.958967,AL,Centreville,32.958967,-87.132043,2024/02/18 17:39:50+00,2024/02/18 18:59:00+00,2024/02/18 20:16:40+00,90
-88.246019,31.469145,AL,Chatom,31.469145,-88.246019,2024/02/18 17:35:40+00,2024/02/18 18:55:10+00,2024/02/18 20:13:30+00,91
-86.635139,33.309007,AL,Chelsea,33.309007,-86.635139,2024/02/18 17:41:10+00,2024/02/18 19:00:20+00,2024/02/18 20:17:40+00,92
-87.965589,34.7577,AL,Cherokee,34.7577,-87.965589,2024/02/18 17:40:50+00,2024/02/18 18:59:50+00,2024/02/18 20:17:30+00,93
-88.079697,30.77145,AL,Chickasaw,30.77145,-88.079697,2024/02/18 17:35:00+00,2024/02/18 18:54:30+00,2024/02/18 20:12:50+00,94
-86.340844,33.292549,AL,Childersburg,33.292549,-86.340844,2024/02/18 17:41:50+00,2024/02/18 19:00:50+00,2024/02/18 20:18:10+00,95
-85.707191,33.667728,AL,Choccolocco,33.667728,-85.707191,2024/02/18 17:43:20+00,2024/02/18 19:02:20+00,2024/02/18 20:19:20+00,96
-88.2082,30.927194,AL,Chunchula,30.927194,-88.2082,2024/02/18 17:35:00+00,2024/02/18 18:54:20+00,2024/02/18 20:12:50+00,97
-88.249843,31.097269,AL,Citronelle,31.097269,-88.249843,2024/02/18 17:35:00+00,2024/02/18 18:54:30+00,2024/02/18 20:13:00+00,98
-86.619494,32.845572,AL,Clanton,32.845572,-86.619494,2024/02/18 17:40:40+00,2024/02/18 18:59:40+00,2024/02/18 20:17:10+00,99
-86.608182,33.696583,AL,Clay,33.696583,-86.608182,2024/02/18 17:41:50+00,2024/02/18 19:00:50+00,2024/02/18 20:18:10+00,100
-86.230171,34.001318,AL,Gallant,34.001318,-86.230171,2024/02/18 17:42:50+00,2024/02/18 19:01:50+00,2024/02/18 20:19:00+00,101
-86.483524,31.41074,AL,Gantt,31.41074,-86.483524,2024/02/18 17:39:00+00,2024/02/18 18:58:10+00,2024/02/18 20:15:40+00,102
-86.749054,34.014688,AL,Garden City,34.014688,-86.749054,2024/02/18 17:42:00+00,2024/02/18 19:01:00+00,2024/02/18 20:18:20+00,103
-86.809844,33.676587,AL,Gardendale,33.676587,-86.809844,2024/02/18 17:41:20+00,2024/02/18 19:00:30+00,2024/02/18 20:17:50+00,104
-85.561248,34.267444,AL,Gaylesville,34.267444,-85.561248,2024/02/18 17:44:30+00,2024/02/18 19:03:20+00,2024/02/18 20:20:00+00,105
-88.318154,32.868715,AL,Geiger,32.868715,-88.318154,2024/02/18 17:37:30+00,2024/02/18 18:56:50+00,2024/02/18 20:15:00+00,106
-85.876818,31.044886,AL,Geneva,31.044886,-85.876818,2024/02/18 17:39:40+00,2024/02/18 18:58:40+00,2024/02/18 20:15:50+00,107
-86.746762,31.639134,AL,Georgiana,31.639134,-86.746762,2024/02/18 17:38:50+00,2024/02/18 18:58:00+00,2024/02/18 20:15:40+00,108
-86.002579,34.359087,AL,Geraldine,34.359087,-86.002579,2024/02/18 17:43:40+00,2024/02/18 19:02:40+00,2024/02/18 20:19:30+00,109
-88.307545,31.866247,AL,Gilbertown,31.866247,-88.307545,2024/02/18 17:36:10+00,2024/02/18 18:55:40+00,2024/02/18 20:13:50+00,110
-87.732682,33.892108,AL,Glen Allen,33.892108,-87.732682,2024/02/18 17:40:00+00,2024/02/18 18:59:10+00,2024/02/18 20:17:00+00,111
-85.933606,33.948339,AL,Glencoe,33.948339,-85.933606,2024/02/18 17:43:20+00,2024/02/18 19:02:20+00,2024/02/18 20:19:20+00,112
-86.173687,31.671266,AL,Glenwood,31.671266,-86.173687,2024/02/18 17:40:00+00,2024/02/18 18:59:00+00,2024/02/18 20:16:20+00,113
-85.777982,33.084867,AL,Goldville,33.084867,-85.777982,2024/02/18 17:42:30+00,2024/02/18 19:01:30+00,2024/02/18 20:18:30+00,114
-86.867104,34.110689,AL,Good Hope,34.110689,-86.867104,2024/02/18 17:41:50+00,2024/02/18 19:01:00+00,2024/02/18 20:18:20+00,115
-86.052486,33.060713,AL,Goodwater,33.060713,-86.052486,2024/02/18 17:42:00+00,2024/02/18 19:01:00+00,2024/02/18 20:18:10+00,116
-87.903681,33.322286,AL,Gordo,33.322286,-87.903681,2024/02/18 17:38:50+00,2024/02/18 18:58:10+00,2024/02/18 20:16:10+00,117
-85.092504,31.143606,AL,Gordon,31.143606,-85.092504,2024/02/18 17:41:30+00,2024/02/18 19:00:10+00,2024/02/18 20:17:00+00,118
-86.704235,32.159179,AL,Gordonville,32.159179,-86.704235,2024/02/18 17:39:30+00,2024/02/18 18:58:40+00,2024/02/18 20:16:20+00,119
-86.123245,31.720015,AL,Goshen,31.720015,-86.123245,2024/02/18 17:40:10+00,2024/02/18 18:59:10+00,2024/02/18 20:16:30+00,120
-85.323085,33.455191,AL,Graham,33.455191,-85.323085,2024/02/18 17:43:50+00,2024/02/18 19:02:40+00,2024/02/18 20:19:30+00,121
-88.344401,30.472082,AL,Grand Bay,30.472082,-88.344401,2024/02/18 17:34:00+00,2024/02/18 18:53:30+00,2024/02/18 20:12:00+00,122
-86.26043,34.518173,AL,Grant,34.518173,-86.26043,2024/02/18 17:43:30+00,2024/02/18 19:02:30+00,2024/02/18 20:19:30+00,123
-86.641942,33.646568,AL,Grayson Valley,33.646568,-86.641942,2024/02/18 17:41:40+00,2024/02/18 19:00:40+00,2024/02/18 20:18:00+00,124
-86.941398,33.633756,AL,Graysville,33.633756,-86.941398,2024/02/18 17:41:10+00,2024/02/18 19:00:10+00,2024/02/18 20:17:40+00,125
-87.5937,32.700968,AL,Greensboro,32.700968,-87.5937,2024/02/18 17:38:40+00,2024/02/18 18:58:00+00,2024/02/18 20:15:50+00,126
-86.636951,31.843072,AL,Greenville,31.843072,-86.636951,2024/02/18 17:39:10+00,2024/02/18 18:58:30+00,2024/02/18 20:16:00+00,127
-85.45029,31.299869,AL,Grimes,31.299869,-85.45029,2024/02/18 17:41:00+00,2024/02/18 18:59:50+00,2024/02/18 20:16:50+00,128
-87.772868,31.69867,AL,Grove Hill,31.69867,-87.772868,2024/02/18 17:36:50+00,2024/02/18 18:56:20+00,2024/02/18 20:14:20+00,129
-87.902363,33.98322,AL,Guin,33.98322,-87.902363,2024/02/18 17:39:50+00,2024/02/18 18:59:00+00,2024/02/18 20:16:50+00,130
-88.242231,30.991106,AL,Gulfcrest,30.991106,-88.242231,2024/02/18 17:35:00+00,2024/02/18 18:54:30+00,2024/02/18 20:12:50+00,131
-87.701258,30.275837,AL,Gulf Shores,30.275837,-87.701258,2024/02/18 17:35:00+00,2024/02/18 18:54:20+00,2024/02/18 20:12:30+00,132
-86.252323,34.367947,AL,Guntersville,34.367947,-86.252323,2024/02/18 17:43:20+00,2024/02/18 19:02:20+00,2024/02/18 20:19:20+00,133
-86.380271,34.701364,AL,Gurley,34.701364,-86.380271,2024/02/18 17:43:30+00,2024/02/18 19:02:30+00,2024/02/18 20:19:30+00,134
-87.870376,33.94433,AL,Gu-Win,33.94433,-87.870376,2024/02/18 17:39:50+00,2024/02/18 18:59:00+00,2024/02/18 20:16:50+00,135
-87.830402,34.269355,AL,Hackleburg,34.269355,-87.830402,2024/02/18 17:40:20+00,2024/02/18 18:59:30+00,2024/02/18 20:17:10+00,136
-85.934423,33.054654,AL,Hackneyville,33.054654,-85.934423,2024/02/18 17:42:10+00,2024/02/18 19:01:10+00,2024/02/18 20:18:20+00,137
-85.138068,31.409976,AL,Haleburg,31.409976,-85.138068,2024/02/18 17:41:40+00,2024/02/18 19:00:30+00,2024/02/18 20:17:20+00,138
-87.617574,34.233832,AL,Haleyville,34.233832,-87.617574,2024/02/18 17:40:50+00,2024/02/18 18:59:50+00,2024/02/18 20:17:30+00,139
-87.970833,34.138713,AL,Hamilton,34.138713,-87.970833,2024/02/18 17:40:00+00,2024/02/18 18:59:10+00,2024/02/18 20:16:50+00,140
-85.640348,34.566232,AL,Hammondville,34.566232,-85.640348,2024/02/18 17:44:40+00,2024/02/18 19:03:30+00,2024/02/18 20:20:20+00,141
-86.764436,34.06401,AL,Hanceville,34.06401,-86.764436,2024/02/18 17:42:00+00,2024/02/18 19:01:00+00,2024/02/18 20:18:20+00,142
-86.200931,33.002922,AL,Hanover,33.002922,-86.200931,2024/02/18 17:41:40+00,2024/02/18 19:00:40+00,2024/02/18 20:17:50+00,143
-86.428431,33.317725,AL,Harpersville,33.317725,-86.428431,2024/02/18 17:41:40+00,2024/02/18 19:00:40+00,2024/02/18 20:18:00+00,144
-85.691225,31.105348,AL,Hartford,31.105348,-85.691225,2024/02/18 17:40:10+00,2024/02/18 18:59:10+00,2024/02/18 20:16:10+00,145
-86.940364,34.440434,AL,Hartselle,34.440434,-86.940364,2024/02/18 17:42:10+00,2024/02/18 19:01:10+00,2024/02/18 20:18:30+00,146
-86.758643,34.85507,AL,Harvest,34.85507,-86.758643,2024/02/18 17:43:10+00,2024/02/18 19:02:00+00,2024/02/18 20:19:10+00,147
-87.413835,34.560671,AL,Hatton,34.560671,-87.413835,2024/02/18 17:41:30+00,2024/02/18 19:00:30+00,2024/02/18 20:18:00+00,148
-86.744224,33.894514,AL,Hayden,33.894514,-86.744224,2024/02/18 17:41:50+00,2024/02/18 19:00:50+00,2024/02/18 20:18:10+00,149
-86.578588,32.182595,AL,Hayneville,32.182595,-86.578588,2024/02/18 17:39:50+00,2024/02/18 18:59:00+00,2024/02/18 20:16:30+00,150
-86.567392,34.923656,AL,Hazel Green,34.923656,-86.567392,2024/02/18 17:43:30+00,2024/02/18 19:02:20+00,2024/02/18 20:19:30+00,151
-85.357031,31.354974,AL,Headland,31.354974,-85.357031,2024/02/18 17:41:10+00,2024/02/18 19:00:00+00,2024/02/18 20:17:00+00,152
-86.46905,31.344839,AL,Heath,31.344839,-86.46905,2024/02/18 17:39:00+00,2024/02/18 18:58:00+00,2024/02/18 20:15:40+00,153
-85.569339,33.6474,AL,Heflin,33.6474,-85.569339,2024/02/18 17:43:40+00,2024/02/18 19:02:30+00,2024/02/18 20:19:20+00,154
-86.879177,33.283424,AL,Helena,33.283424,-86.879177,2024/02/18 17:40:50+00,2024/02/18 19:00:00+00,2024/02/18 20:17:30+00,155
-85.730918,34.630641,AL,Henagar,34.630641,-85.730918,2024/02/18 17:44:40+00,2024/02/18 19:03:30+00,2024/02/18 20:20:10+00,156
-86.422553,33.894586,AL,Highland Lake,33.894586,-86.422553,2024/02/18 17:42:20+00,2024/02/18 19:01:20+00,2024/02/18 20:18:40+00,157
-86.64792,33.397611,AL,Highland Lakes,33.397611,-86.64792,2024/02/18 17:41:20+00,2024/02/18 19:00:20+00,2024/02/18 20:17:50+00,158
-87.178489,34.642586,AL,Hillsboro,34.642586,-87.178489,2024/02/18 17:42:10+00,2024/02/18 19:01:00+00,2024/02/18 20:18:20+00,159
-86.129601,32.890568,AL,Hissop,32.890568,-86.129601,2024/02/18 17:41:40+00,2024/02/18 19:00:40+00,2024/02/18 20:18:00+00,160
-88.150928,31.488725,AL,Hobson,31.488725,-88.150928,2024/02/18 17:35:50+00,2024/02/18 18:55:20+00,2024/02/18 20:13:40+00,161
-85.846146,33.618801,AL,Hobson City,33.618801,-85.846146,2024/02/18 17:43:10+00,2024/02/18 19:02:00+00,2024/02/18 20:19:00+00,162
-87.92316,34.334246,AL,Hodges,34.334246,-87.92316,2024/02/18 17:40:20+00,2024/02/18 18:59:30+00,2024/02/18 20:17:10+00,163
-85.862873,33.989682,AL,Hokes Bluff,33.989682,-85.862873,2024/02/18 17:43:30+00,2024/02/18 19:02:30+00,2024/02/18 20:19:30+00,164
-86.126967,33.121757,AL,Hollins,33.121757,-86.126967,2024/02/18 17:42:00+00,2024/02/18 19:01:00+00,2024/02/18 20:18:10+00,165
-85.652862,33.531333,AL,Hollis Crossroads,33.531333,-85.652862,2024/02/18 17:43:20+00,2024/02/18 19:02:10+00,2024/02/18 20:19:10+00,166
-86.612067,34.167686,AL,Holly Pond,34.167686,-86.612067,2024/02/18 17:42:30+00,2024/02/18 19:01:30+00,2024/02/18 20:18:40+00,167
-85.965579,34.717279,AL,Hollywood,34.717279,-85.965579,2024/02/18 17:44:20+00,2024/02/18 19:03:10+00,2024/02/18 20:20:00+00,168
-87.482894,33.229745,AL,Holt,33.229745,-87.482894,2024/02/18 17:39:40+00,2024/02/18 18:58:50+00,2024/02/18 20:16:40+00,169
-86.328004,32.630299,AL,Holtville,32.630299,-86.328004,2024/02/18 17:40:50+00,2024/02/18 19:00:00+00,2024/02/18 20:17:20+00,170
-86.80965,33.45855,AL,Homewood,33.45855,-86.80965,2024/02/18 17:41:10+00,2024/02/18 19:00:10+00,2024/02/18 20:17:40+00,171
-86.808905,33.37903,AL,Hoover,33.37903,-86.808905,2024/02/18 17:41:00+00,2024/02/18 19:00:10+00,2024/02/18 20:17:30+00,172
-86.325163,31.238137,AL,Horn Hill,31.238137,-86.325163,2024/02/18 17:39:00+00,2024/02/18 18:58:10+00,2024/02/18 20:15:40+00,173
-87.016565,33.408604,AL,Hueytown,33.408604,-87.016565,2024/02/18 17:40:40+00,2024/02/18 18:59:50+00,2024/02/18 20:17:20+00,174
-85.239635,32.843062,AL,Huguley,32.843062,-85.239635,2024/02/18 17:43:20+00,2024/02/18 19:02:10+00,2024/02/18 20:19:00+00,175
-86.67667,34.69772,AL,Huntsville,34.69772,-86.67667,2024/02/18 17:43:00+00,2024/02/18 19:02:00+00,2024/02/18 20:19:00+00,176
-85.41467,32.24009,AL,Hurtsboro,32.24009,-85.41467,2024/02/18 17:42:10+00,2024/02/18 19:01:00+00,2024/02/18 20:18:00+00,177
-86.089176,34.896635,AL,Hytop,34.896635,-86.089176,2024/02/18 17:44:20+00,2024/02/18 19:03:10+00,2024/02/18 20:20:00+00,178
-85.668958,34.702599,AL,Ider,34.702599,-85.668958,2024/02/18 17:44:50+00,2024/02/18 19:03:30+00,2024/02/18 20:20:20+00,179
-86.746856,33.361209,AL,Indian Springs Village,33.361209,-86.746856,2024/02/18 17:41:10+00,2024/02/18 19:00:10+00,2024/02/18 20:17:40+00,180
-86.659082,33.539914,AL,Irondale,33.539914,-86.659082,2024/02/18 17:41:30+00,2024/02/18 19:00:40+00,2024/02/18 20:18:00+00,181
-86.147182,34.037204,AL,Ivalee,34.037204,-86.147182,2024/02/18 17:43:00+00,2024/02/18 19:02:00+00,2024/02/18 20:19:10+00,182
-87.891183,31.532321,AL,Jackson,31.532321,-87.891183,2024/02/18 17:36:20+00,2024/02/18 18:55:50+00,2024/02/18 20:14:00+00,183
-85.815046,32.884019,AL,Jacksons' Gap,32.884019,-85.815046,2024/02/18 17:42:10+00,2024/02/18 19:01:10+00,2024/02/18 20:18:20+00,184
-85.755217,33.810066,AL,Jacksonville,33.810066,-85.755217,2024/02/18 17:43:30+00,2024/02/18 19:02:20+00,2024/02/18 20:19:20+00,185
-87.268348,33.85111,AL,Jasper,33.85111,-87.268348,2024/02/18 17:40:50+00,2024/02/18 19:00:00+00,2024/02/18 20:17:30+00,186
-86.73307,32.970705,AL,Jemison,32.970705,-86.73307,2024/02/18 17:40:40+00,2024/02/18 18:59:50+00,2024/02/18 20:17:10+00,187
-86.549946,34.29955,AL,Joppa,34.29955,-86.549946,2024/02/18 17:42:40+00,2024/02/18 19:01:40+00,2024/02/18 20:18:50+00,188
-87.556598,33.902808,AL,Kansas,33.902808,-87.556598,2024/02/18 17:40:20+00,2024/02/18 18:59:30+00,2024/02/18 20:17:10+00,189
-86.034608,32.979188,AL,Kellyton,32.979188,-86.034608,2024/02/18 17:42:00+00,2024/02/18 19:01:00+00,2024/02/18 20:18:10+00,190
-87.9855,33.580722,AL,Kennedy,33.580722,-87.9855,2024/02/18 17:39:10+00,2024/02/18 18:58:20+00,2024/02/18 20:16:20+00,191
-87.529346,34.860954,AL,Killen,34.860954,-87.529346,2024/02/18 17:41:50+00,2024/02/18 19:00:50+00,2024/02/18 20:18:10+00,192
-86.800211,33.776989,AL,Kimberly,33.776989,-86.800211,2024/02/18 17:41:30+00,2024/02/18 19:00:40+00,2024/02/18 20:18:00+00,193
-85.334994,31.296269,AL,Kinsey,31.296269,-85.334994,2024/02/18 17:41:10+00,2024/02/18 19:00:00+00,2024/02/18 20:17:00+00,194
-86.170075,31.219604,AL,Kinston,31.219604,-86.170075,2024/02/18 17:39:20+00,2024/02/18 18:58:30+00,2024/02/18 20:15:50+00,195
-85.090423,32.459709,AL,Ladonia,32.459709,-85.090423,2024/02/18 17:43:00+00,2024/02/18 19:01:50+00,2024/02/18 20:18:40+00,196
-85.400795,32.899427,AL,La Fayette,32.899427,-85.400795,2024/02/18 17:43:00+00,2024/02/18 19:01:50+00,2024/02/18 20:18:50+00,197
-85.975573,34.391675,AL,Lakeview,34.391675,-85.975573,2024/02/18 17:43:50+00,2024/02/18 19:02:40+00,2024/02/18 20:19:40+00,198
-87.132653,33.288266,AL,Lake View,33.288266,-87.132653,2024/02/18 17:40:20+00,2024/02/18 18:59:30+00,2024/02/18 20:17:10+00,199
-85.207788,32.858649,AL,Lanett,32.858649,-85.207788,2024/02/18 17:43:20+00,2024/02/18 19:02:10+00,2024/02/18 20:19:00+00,200
-86.423371,33.700875,AL,Odenville,33.700875,-86.423371,2024/02/18 17:42:10+00,2024/02/18 19:01:10+00,2024/02/18 20:18:20+00,201
-86.029062,33.789759,AL,Ohatchee,33.789759,-86.029062,2024/02/18 17:43:00+00,2024/02/18 19:01:50+00,2024/02/18 20:19:00+00,202
-86.489793,33.947038,AL,Oneonta,33.947038,-86.489793,2024/02/18 17:42:20+00,2024/02/18 19:01:20+00,2024/02/18 20:18:30+00,203
-86.276024,31.225693,AL,Onycha,31.225693,-86.276024,2024/02/18 17:39:10+00,2024/02/18 18:58:10+00,2024/02/18 20:15:40+00,204
-85.37889,32.660739,AL,Opelika,32.660739,-85.37889,2024/02/18 17:42:50+00,2024/02/18 19:01:40+00,2024/02/18 20:18:40+00,205
-86.257442,31.284375,AL,Opp,31.284375,-86.257442,2024/02/18 17:39:20+00,2024/02/18 18:58:20+00,2024/02/18 20:15:50+00,206
-87.595371,30.293987,AL,Orange Beach,30.293987,-87.595371,2024/02/18 17:35:20+00,2024/02/18 18:54:40+00,2024/02/18 20:12:40+00,207
-87.245447,32.306769,AL,Orrville,32.306769,-87.245447,2024/02/18 17:38:40+00,2024/02/18 18:58:00+00,2024/02/18 20:15:50+00,208
-85.967035,32.842211,AL,Our Town,32.842211,-85.967035,2024/02/18 17:41:50+00,2024/02/18 19:00:50+00,2024/02/18 20:18:00+00,209
-86.455027,34.585458,AL,Owens Cross Roads,34.585458,-86.455027,2024/02/18 17:43:20+00,2024/02/18 19:02:10+00,2024/02/18 20:19:20+00,210
-85.868219,33.59641,AL,Oxford,33.59641,-85.868219,2024/02/18 17:43:00+00,2024/02/18 19:02:00+00,2024/02/18 20:19:00+00,211
-85.645035,31.451615,AL,Ozark,31.451615,-85.645035,2024/02/18 17:40:40+00,2024/02/18 18:59:40+00,2024/02/18 20:16:50+00,212
-86.333952,34.660934,AL,Paint Rock,34.660934,-86.333952,2024/02/18 17:43:30+00,2024/02/18 19:02:30+00,2024/02/18 20:19:30+00,213
-88.262266,32.946819,AL,Panola,32.946819,-88.262266,2024/02/18 17:37:40+00,2024/02/18 18:57:10+00,2024/02/18 20:15:10+00,214
-87.280127,33.732321,AL,Parrish,33.732321,-87.280127,2024/02/18 17:40:30+00,2024/02/18 18:59:40+00,2024/02/18 20:17:20+00,215
-86.937949,33.133805,AL,Pea Ridge,33.133805,-86.937949,2024/02/18 17:40:20+00,2024/02/18 18:59:30+00,2024/02/18 20:17:10+00,216
-86.742197,33.32183,AL,Pelham,33.32183,-86.742197,2024/02/18 17:41:00+00,2024/02/18 19:00:10+00,2024/02/18 20:17:40+00,217
-86.263634,33.560312,AL,Pell City,33.560312,-86.263634,2024/02/18 17:42:20+00,2024/02/18 19:01:20+00,2024/02/18 20:18:30+00,218
-88.037572,32.200612,AL,Pennington,32.200612,-88.037572,2024/02/18 17:37:00+00,2024/02/18 18:56:30+00,2024/02/18 20:14:40+00,219
-85.474824,33.009832,AL,Penton,33.009832,-85.474824,2024/02/18 17:43:00+00,2024/02/18 19:01:50+00,2024/02/18 20:18:50+00,220
-87.630272,31.005634,AL,Perdido,31.005634,-87.630272,2024/02/18 17:36:10+00,2024/02/18 18:55:30+00,2024/02/18 20:13:40+00,221
-87.5048,30.353879,AL,Perdido Beach,30.353879,-87.5048,2024/02/18 17:35:30+00,2024/02/18 18:54:50+00,2024/02/18 20:12:50+00,222
-87.263042,31.583669,AL,Peterman,31.583669,-87.263042,2024/02/18 17:37:40+00,2024/02/18 18:57:00+00,2024/02/18 20:14:50+00,223
-86.204007,31.85216,AL,Petrey,31.85216,-86.204007,2024/02/18 17:40:10+00,2024/02/18 18:59:10+00,2024/02/18 20:16:30+00,224
-85.031019,32.453709,AL,Phenix City,32.453709,-85.031019,2024/02/18 17:43:10+00,2024/02/18 19:02:00+00,2024/02/18 20:18:50+00,225
-87.707359,34.351547,AL,Phil Campbell,34.351547,-87.707359,2024/02/18 17:40:40+00,2024/02/18 18:59:50+00,2024/02/18 20:17:30+00,226
-88.289443,33.235782,AL,Pickensville,33.235782,-88.289443,2024/02/18 17:38:00+00,2024/02/18 18:57:30+00,2024/02/18 20:15:30+00,227
-85.615267,33.927557,AL,Piedmont,33.927557,-85.615267,2024/02/18 17:44:00+00,2024/02/18 19:02:50+00,2024/02/18 20:19:40+00,228
-86.118927,32.273609,AL,Pike Road,32.273609,-86.118927,2024/02/18 17:40:50+00,2024/02/18 18:59:50+00,2024/02/18 20:17:10+00,229
-85.537836,31.318989,AL,Pinckard,31.318989,-85.537836,2024/02/18 17:40:40+00,2024/02/18 18:59:40+00,2024/02/18 20:16:40+00,230
-86.989059,31.872155,AL,Pine Apple,31.872155,-86.989059,2024/02/18 17:38:40+00,2024/02/18 18:57:50+00,2024/02/18 20:15:40+00,231
-87.587516,31.985884,AL,Pine Hill,31.985884,-87.587516,2024/02/18 17:37:30+00,2024/02/18 18:57:00+00,2024/02/18 20:15:00+00,232
-86.454318,32.579539,AL,Pine Level,32.579539,-86.454318,2024/02/18 17:40:30+00,2024/02/18 18:59:40+00,2024/02/18 20:17:10+00,233
-85.783831,34.447915,AL,Pine Ridge,34.447915,-85.783831,2024/02/18 17:44:10+00,2024/02/18 19:03:00+00,2024/02/18 20:20:00+00,234
-86.663613,33.709262,AL,Pinson,33.709262,-86.663613,2024/02/18 17:41:40+00,2024/02/18 19:00:50+00,2024/02/18 20:18:10+00,235
-85.84601,34.684366,AL,Pisgah,34.684366,-85.84601,2024/02/18 17:44:30+00,2024/02/18 19:03:20+00,2024/02/18 20:20:10+00,236
-86.97815,33.493967,AL,Pleasant Grove,33.493967,-86.97815,2024/02/18 17:40:50+00,2024/02/18 19:00:00+00,2024/02/18 20:17:30+00,237
-86.197637,34.737619,AL,Pleasant Groves,34.737619,-86.197637,2024/02/18 17:44:00+00,2024/02/18 19:02:50+00,2024/02/18 20:19:40+00,238
-87.911132,30.486112,AL,Point Clear,30.486112,-87.911132,2024/02/18 17:34:50+00,2024/02/18 18:54:20+00,2024/02/18 20:12:30+00,239
-87.172978,31.023877,AL,Pollard,31.023877,-87.172978,2024/02/18 17:37:10+00,2024/02/18 18:56:20+00,2024/02/18 20:14:20+00,240
-85.897553,34.532588,AL,Powell,34.532588,-85.897553,2024/02/18 17:44:10+00,2024/02/18 19:03:00+00,2024/02/18 20:19:50+00,241
-86.449401,32.449041,AL,Prattville,32.449041,-86.449401,2024/02/18 17:40:20+00,2024/02/18 18:59:30+00,2024/02/18 20:17:00+00,242
-86.882177,34.529583,AL,Priceville,34.529583,-86.882177,2024/02/18 17:42:20+00,2024/02/18 19:01:20+00,2024/02/18 20:18:40+00,243
-88.131416,30.773337,AL,Prichard,30.773337,-88.131416,2024/02/18 17:34:50+00,2024/02/18 18:54:20+00,2024/02/18 20:12:40+00,244
-87.776115,32.342386,AL,Providence,32.342386,-87.776115,2024/02/18 17:37:40+00,2024/02/18 18:57:10+00,2024/02/18 20:15:10+00,245
-88.033057,32.018084,AL,Putnam,32.018084,-88.033057,2024/02/18 17:36:50+00,2024/02/18 18:56:10+00,2024/02/18 20:14:30+00,246
-86.135927,33.748325,AL,Ragland,33.748325,-86.135927,2024/02/18 17:42:40+00,2024/02/18 19:01:40+00,2024/02/18 20:18:50+00,247
-86.084228,33.928777,AL,Rainbow City,33.928777,-86.084228,2024/02/18 17:43:10+00,2024/02/18 19:02:00+00,2024/02/18 20:19:10+00,248
-85.836505,34.494364,AL,Rainsville,34.494364,-85.836505,2024/02/18 17:44:10+00,2024/02/18 19:03:00+00,2024/02/18 20:19:50+00,249
-85.339013,33.525853,AL,Ranburne,33.525853,-85.339013,2024/02/18 17:44:00+00,2024/02/18 19:02:50+00,2024/02/18 20:19:30+00,250
-86.045252,32.868141,AL,Ray,32.868141,-86.045252,2024/02/18 17:41:40+00,2024/02/18 19:00:40+00,2024/02/18 20:18:00+00,251
-88.136515,34.436097,AL,Red Bay,34.436097,-88.136515,2024/02/18 17:40:10+00,2024/02/18 18:59:10+00,2024/02/18 20:17:00+00,252
-86.143759,32.481426,AL,Redland,32.481426,-86.143759,2024/02/18 17:41:00+00,2024/02/18 19:00:10+00,2024/02/18 20:17:20+00,253
-86.606217,31.406711,AL,Red Level,31.406711,-86.606217,2024/02/18 17:38:50+00,2024/02/18 18:57:50+00,2024/02/18 20:15:30+00,254
-86.661172,34.687763,AL,Redstone Arsenal,34.687763,-86.661172,2024/02/18 17:43:00+00,2024/02/18 19:02:00+00,2024/02/18 20:19:00+00,255
-86.034498,34.077241,AL,Reece City,34.077241,-86.034498,2024/02/18 17:43:20+00,2024/02/18 19:02:20+00,2024/02/18 20:19:20+00,256
-85.819562,32.574211,AL,Reeltown,32.574211,-85.819562,2024/02/18 17:41:50+00,2024/02/18 19:00:50+00,2024/02/18 20:18:00+00,257
-88.017273,33.37826,AL,Reform,33.37826,-88.017273,2024/02/18 17:38:50+00,2024/02/18 18:58:10+00,2024/02/18 20:16:00+00,258
-85.439607,31.124507,AL,Rehobeth,31.124507,-85.439607,2024/02/18 17:40:40+00,2024/02/18 18:59:30+00,2024/02/18 20:16:30+00,259
-86.593941,33.806972,AL,Remlap,33.806972,-86.593941,2024/02/18 17:42:00+00,2024/02/18 19:01:00+00,2024/02/18 20:18:20+00,260
-87.238931,31.409716,AL,Repton,31.409716,-87.238931,2024/02/18 17:37:30+00,2024/02/18 18:56:50+00,2024/02/18 20:14:40+00,261
-86.102874,34.056929,AL,Ridgeville,34.056929,-86.102874,2024/02/18 17:43:10+00,2024/02/18 19:02:00+00,2024/02/18 20:19:10+00,262
-86.544609,31.352397,AL,River Falls,31.352397,-86.544609,2024/02/18 17:38:50+00,2024/02/18 18:58:00+00,2024/02/18 20:15:30+00,263
-86.204357,33.616394,AL,Riverside,33.616394,-86.204357,2024/02/18 17:42:20+00,2024/02/18 19:01:20+00,2024/02/18 20:18:40+00,264
-87.077531,31.06126,AL,Riverview,31.06126,-87.077531,2024/02/18 17:37:20+00,2024/02/18 18:56:40+00,2024/02/18 20:14:30+00,265
-85.369526,33.145305,AL,Roanoke,33.145305,-85.369526,2024/02/18 17:43:20+00,2024/02/18 19:02:20+00,2024/02/18 20:19:10+00,266
-87.704723,30.557139,AL,Robertsdale,30.557139,-87.704723,2024/02/18 17:35:30+00,2024/02/18 18:54:50+00,2024/02/18 20:13:00+00,267
-87.081249,33.477227,AL,Rock Creek,33.477227,-87.081249,2024/02/18 17:40:40+00,2024/02/18 18:59:50+00,2024/02/18 20:17:20+00,268
-86.208346,32.896866,AL,Rockford,32.896866,-86.208346,2024/02/18 17:41:30+00,2024/02/18 19:00:30+00,2024/02/18 20:17:50+00,269
-85.28107,33.15994,AL,Rock Mills,33.15994,-85.28107,2024/02/18 17:43:30+00,2024/02/18 19:02:20+00,2024/02/18 20:19:20+00,270
-87.844212,31.405776,AL,Rockville,31.405776,-87.844212,2024/02/18 17:36:20+00,2024/02/18 18:55:50+00,2024/02/18 20:14:00+00,271
-87.284092,34.827714,AL,Rogersville,34.827714,-87.284092,2024/02/18 17:42:10+00,2024/02/18 19:01:00+00,2024/02/18 20:18:20+00,272
-86.500325,33.992756,AL,Rosa,33.992756,-86.500325,2024/02/18 17:42:20+00,2024/02/18 19:01:20+00,2024/02/18 20:18:40+00,273
-87.728123,34.505719,AL,Russellville,34.505719,-87.728123,2024/02/18 17:40:50+00,2024/02/18 19:00:00+00,2024/02/18 20:17:30+00,274
-86.302008,31.724072,AL,Rutledge,31.724072,-86.302008,2024/02/18 17:39:50+00,2024/02/18 18:58:50+00,2024/02/18 20:16:20+00,275
-87.623736,34.874098,AL,St. Florian,34.874098,-87.623736,2024/02/18 17:41:40+00,2024/02/18 19:00:40+00,2024/02/18 20:18:00+00,276
-88.052834,31.571111,AL,St. Stephens,31.571111,-88.052834,2024/02/18 17:36:10+00,2024/02/18 18:55:40+00,2024/02/18 20:13:50+00,277
-85.853698,33.711401,AL,Saks,33.711401,-85.853698,2024/02/18 17:43:10+00,2024/02/18 19:02:10+00,2024/02/18 20:19:10+00,278
-86.046735,31.112417,AL,Samson,31.112417,-86.046735,2024/02/18 17:39:20+00,2024/02/18 18:58:20+00,2024/02/18 20:15:50+00,279
-85.770416,34.231228,AL,Sand Rock,34.231228,-85.770416,2024/02/18 17:44:00+00,2024/02/18 19:02:50+00,2024/02/18 20:19:50+00,280
-86.398848,31.298819,AL,Sanford,31.298819,-86.398848,2024/02/18 17:39:00+00,2024/02/18 18:58:10+00,2024/02/18 20:15:40+00,281
-88.109842,30.854566,AL,Saraland,30.854566,-88.109842,2024/02/18 17:35:10+00,2024/02/18 18:54:30+00,2024/02/18 20:12:50+00,282
-86.119104,34.172413,AL,Sardis City,34.172413,-86.119104,2024/02/18 17:43:20+00,2024/02/18 19:02:10+00,2024/02/18 20:19:20+00,283
-88.063383,30.857874,AL,Satsuma,30.857874,-88.063383,2024/02/18 17:35:10+00,2024/02/18 18:54:40+00,2024/02/18 20:13:00+00,284
-86.048155,34.64462,AL,Scottsboro,34.64462,-86.048155,2024/02/18 17:44:00+00,2024/02/18 19:02:50+00,2024/02/18 20:19:50+00,285
-85.984942,34.581644,AL,Section,34.581644,-85.984942,2024/02/18 17:44:00+00,2024/02/18 19:03:00+00,2024/02/18 20:19:50+00,286
-87.035702,32.416983,AL,Selma,32.416983,-87.035702,2024/02/18 17:39:20+00,2024/02/18 18:58:30+00,2024/02/18 20:16:10+00,287
-87.006888,32.378253,AL,Selmont-West Selmont,32.378253,-87.006888,2024/02/18 17:39:20+00,2024/02/18 18:58:30+00,2024/02/18 20:16:10+00,288
-88.24759,30.796223,AL,Semmes,30.796223,-88.24759,2024/02/18 17:34:40+00,2024/02/18 18:54:10+00,2024/02/18 20:12:30+00,289
-87.697085,34.757019,AL,Sheffield,34.757019,-87.697085,2024/02/18 17:41:20+00,2024/02/18 19:00:20+00,2024/02/18 20:17:50+00,290
-86.585403,33.106882,AL,Shelby,33.106882,-86.585403,2024/02/18 17:41:00+00,2024/02/18 19:00:10+00,2024/02/18 20:17:30+00,291
-85.877617,34.462666,AL,Shiloh,34.462666,-85.877617,2024/02/18 17:44:10+00,2024/02/18 19:03:00+00,2024/02/18 20:19:50+00,292
-86.610925,33.430763,AL,Shoal Creek,33.430763,-86.610925,2024/02/18 17:41:30+00,2024/02/18 19:00:30+00,2024/02/18 20:17:50+00,293
-85.972808,32.411501,AL,Shorter,32.411501,-85.972808,2024/02/18 17:41:20+00,2024/02/18 19:00:20+00,2024/02/18 20:17:30+00,294
-88.325923,31.767802,AL,Silas,31.767802,-88.325923,2024/02/18 17:36:00+00,2024/02/18 18:55:30+00,2024/02/18 20:13:40+00,295
-87.750557,30.545359,AL,Silverhill,30.545359,-87.750557,2024/02/18 17:35:20+00,2024/02/18 18:54:50+00,2024/02/18 20:13:00+00,296
-88.142971,31.249255,AL,Sims Chapel,31.249255,-88.142971,2024/02/18 17:35:30+00,2024/02/18 18:55:00+00,2024/02/18 20:13:20+00,297
-87.082918,33.822119,AL,Sipsey,33.822119,-87.082918,2024/02/18 17:41:10+00,2024/02/18 19:00:10+00,2024/02/18 20:17:40+00,298
-86.12243,34.798524,AL,Skyline,34.798524,-86.12243,2024/02/18 17:44:10+00,2024/02/18 19:03:00+00,2024/02/18 20:19:50+00,299
-85.59866,31.112126,AL,Slocomb,31.112126,-85.59866,2024/02/18 17:40:20+00,2024/02/18 18:59:20+00,2024/02/18 20:16:20+00,300
-143.00743,62.496548,AK,Nabesna,62.496548,-143.00743,2024/02/18 00:00:00+00,2024/02/18 00:00:00+00,2024/02/18 00:00:00+00,301
-156.885872,58.78516,AK,Naknek,58.78516,-156.885872,2024/02/18 00:00:00+00,2024/02/18 00:00:00+00,2024/02/18 00:00:00+00,302
-151.929558,59.333848,AK,Nanwalek,59.333848,-151.929558,2024/02/18 00:00:00+00,2024/02/18 00:00:00+00,2024/02/18 00:00:00+00,303
-161.985573,60.690541,AK,Napakiak,60.690541,-161.985573,2024/02/18 00:00:00+00,2024/02/18 00:00:00+00,2024/02/18 00:00:00+00,304
-161.753782,60.702782,AK,Napaskiak,60.702782,-161.753782,2024/02/18 00:00:00+00,2024/02/18 00:00:00+00,2024/02/18 00:00:00+00,305
-133.195015,55.874121,AK,Naukati Bay,55.874121,-133.195015,2024/02/18 18:03:10+00,2024/02/18 18:30:40+00,2024/02/18 18:58:50+00,306
-146.829938,62.010403,AK,Nelchina,62.010403,-146.829938,2024/02/18 00:00:00+00,2024/02/18 00:00:00+00,2024/02/18 00:00:00+00,307
-161.635799,55.836649,AK,Nelson Lagoon,55.836649,-161.635799,2024/02/18 00:00:00+00,2024/02/18 00:00:00+00,2024/02/18 00:00:00+00,308
-149.083629,64.536054,AK,Nenana,64.536054,-149.083629,2024/02/18 00:00:00+00,2024/02/18 00:00:00+00,2024/02/18 00:00:00+00,309
-154.902414,59.737057,AK,Newhalen,59.737057,-154.902414,2024/02/18 00:00:00+00,2024/02/18 00:00:00+00,2024/02/18 00:00:00+00,310
-157.309184,59.484987,AK,New Stuyahok,59.484987,-157.309184,2024/02/18 00:00:00+00,2024/02/18 00:00:00+00,2024/02/18 00:00:00+00,311
-164.645682,60.935069,AK,Newtok,60.935069,-164.645682,2024/02/18 00:00:00+00,2024/02/18 00:00:00+00,2024/02/18 00:00:00+00,312
-164.83464,60.462401,AK,Nightmute,60.462401,-164.83464,2024/02/18 00:00:00+00,2024/02/18 00:00:00+00,2024/02/18 00:00:00+00,313
-151.225268,60.725015,AK,Nikiski,60.725015,-151.225268,2024/02/18 00:00:00+00,2024/02/18 00:00:00+00,2024/02/18 00:00:00+00,314
-151.596382,59.829553,AK,Nikolaevsk,59.829553,-151.596382,2024/02/18 00:00:00+00,2024/02/18 00:00:00+00,2024/02/18 00:00:00+00,315
-154.374944,62.999115,AK,Nikolai,62.999115,-154.374944,2024/02/18 00:00:00+00,2024/02/18 00:00:00+00,2024/02/18 00:00:00+00,316
-168.718502,53.007863,AK,Nikolski,53.007863,-168.718502,2024/02/18 00:00:00+00,2024/02/18 00:00:00+00,2024/02/18 00:00:00+00,317
-151.404185,60.061292,AK,Ninilchik,60.061292,-151.404185,2024/02/18 00:00:00+00,2024/02/18 00:00:00+00,2024/02/18 00:00:00+00,318
-163.010434,67.589482,AK,Noatak,67.589482,-163.010434,2024/02/18 00:00:00+00,2024/02/18 00:00:00+00,2024/02/18 00:00:00+00,319
-165.415287,64.505741,AK,Nome,64.505741,-165.415287,2024/02/18 00:00:00+00,2024/02/18 00:00:00+00,2024/02/18 00:00:00+00,320
-154.866046,59.975246,AK,Nondalton,59.975246,-154.866046,2024/02/18 00:00:00+00,2024/02/18 00:00:00+00,2024/02/18 00:00:00+00,321
-161.034669,66.82821,AK,Noorvik,66.82821,-161.034669,2024/02/18 00:00:00+00,2024/02/18 00:00:00+00,2024/02/18 00:00:00+00,322
-149.310724,61.618378,AK,North Lakes,61.618378,-149.310724,2024/02/18 00:00:00+00,2024/02/18 00:00:00+00,2024/02/18 00:00:00+00,323
-147.362655,64.752728,AK,North Pole,64.752728,-147.362655,2024/02/18 00:00:00+00,2024/02/18 00:00:00+00,2024/02/18 00:00:00+00,324
-141.541256,63.000776,AK,Northway,63.000776,-141.541256,2024/02/18 00:00:00+00,2024/02/18 00:00:00+00,2024/02/18 00:00:00+00,325
-150.989674,70.213483,AK,Nuiqsut,70.213483,-150.989674,2024/02/18 00:00:00+00,2024/02/18 00:00:00+00,2024/02/18 00:00:00+00,326
-158.27535,64.691283,AK,Nulato,64.691283,-158.27535,2024/02/18 00:00:00+00,2024/02/18 00:00:00+00,2024/02/18 00:00:00+00,327
-164.900554,62.506887,AK,Nunam Iqua,62.506887,-164.900554,2024/02/18 00:00:00+00,2024/02/18 00:00:00+00,2024/02/18 00:00:00+00,328
-162.464564,60.881767,AK,Nunapitchuk,60.881767,-162.464564,2024/02/18 00:00:00+00,2024/02/18 00:00:00+00,2024/02/18 00:00:00+00,329
-153.329674,57.218798,AK,Old Harbor,57.218798,-153.329674,2024/02/18 00:00:00+00,2024/02/18 00:00:00+00,2024/02/18 00:00:00+00,330
-161.788239,60.723444,AK,Oscarville,60.723444,-161.788239,2024/02/18 00:00:00+00,2024/02/18 00:00:00+00,2024/02/18 00:00:00+00,331
-152.462388,57.92466,AK,Ouzinkie,57.92466,-152.462388,2024/02/18 00:00:00+00,2024/02/18 00:00:00+00,2024/02/18 00:00:00+00,332
-149.114682,61.597166,AK,Palmer,61.597166,-149.114682,2024/02/18 00:00:00+00,2024/02/18 00:00:00+00,2024/02/18 00:00:00+00,333
-145.757621,62.975706,AK,Paxson,62.975706,-145.757621,2024/02/18 00:00:00+00,2024/02/18 00:00:00+00,2024/02/18 00:00:00+00,334
-154.125718,59.789215,AK,Pedro Bay,59.789215,-154.125718,2024/02/18 00:00:00+00,2024/02/18 00:00:00+00,2024/02/18 00:00:00+00,335
-136.215066,57.959229,AK,Pelican,57.959229,-136.215066,2024/02/18 18:11:20+00,2024/02/18 18:31:10+00,2024/02/18 18:51:30+00,336
-159.155754,55.934456,AK,Perryville,55.934456,-159.155754,2024/02/18 00:00:00+00,2024/02/18 00:00:00+00,2024/02/18 00:00:00+00,337
-132.874938,56.756918,AK,Petersburg,56.756918,-132.874938,2024/02/18 18:05:20+00,2024/02/18 18:32:10+00,2024/02/18 18:59:40+00,338
-150.884124,62.453484,AK,Petersville,62.453484,-150.884124,2024/02/18 00:00:00+00,2024/02/18 00:00:00+00,2024/02/18 00:00:00+00,339
-157.722807,57.541137,AK,Pilot Point,57.541137,-157.722807,2024/02/18 00:00:00+00,2024/02/18 00:00:00+00,2024/02/18 00:00:00+00,340
-162.872648,61.948167,AK,Pilot Station,61.948167,-162.872648,2024/02/18 00:00:00+00,2024/02/18 00:00:00+00,2024/02/18 00:00:00+00,341
-163.268128,62.037403,AK,Pitkas Point,62.037403,-163.268128,2024/02/18 00:00:00+00,2024/02/18 00:00:00+00,2024/02/18 00:00:00+00,342
-161.747032,58.952583,AK,Platinum,58.952583,-161.747032,2024/02/18 00:00:00+00,2024/02/18 00:00:00+00,2024/02/18 00:00:00+00,343
-146.89855,64.885468,AK,Pleasant Valley,64.885468,-146.89855,2024/02/18 00:00:00+00,2024/02/18 00:00:00+00,2024/02/18 00:00:00+00,344
-133.616794,56.348132,AK,Point Baker,56.348132,-133.616794,2024/02/18 18:04:40+00,2024/02/18 18:31:00+00,2024/02/18 18:57:50+00,345
-166.681159,68.34421,AK,Point Hope,68.34421,-166.681159,2024/02/18 00:00:00+00,2024/02/18 00:00:00+00,2024/02/18 00:00:00+00,346
-162.834621,69.737125,AK,Point Lay,69.737125,-162.834621,2024/02/18 00:00:00+00,2024/02/18 00:00:00+00,2024/02/18 00:00:00+00,347
-150.048525,61.3427,AK,Point MacKenzie,61.3427,-150.048525,2024/02/18 00:00:00+00,2024/02/18 00:00:00+00,2024/02/18 00:00:00+00,348
-150.688844,60.923081,AK,Point Possession,60.923081,-150.688844,2024/02/18 00:00:00+00,2024/02/18 00:00:00+00,2024/02/18 00:00:00+00,349
-154.447236,59.570602,AK,Pope-Vannoy Landing,59.570602,-154.447236,2024/02/18 00:00:00+00,2024/02/18 00:00:00+00,2024/02/18 00:00:00+00,350
-157.669817,58.90542,AK,Portage Creek,58.90542,-157.669817,2024/02/18 00:00:00+00,2024/02/18 00:00:00+00,2024/02/18 00:00:00+00,351
-134.65275,56.237593,AK,Port Alexander,56.237593,-134.65275,2024/02/18 18:05:10+00,2024/02/18 18:29:50+00,2024/02/18 18:55:20+00,352
-154.33961,60.15673,AK,Port Alsworth,60.15673,-154.33961,2024/02/18 00:00:00+00,2024/02/18 00:00:00+00,2024/02/18 00:00:00+00,353
-166.764673,65.109476,AK,Port Clarence,65.109476,-166.764673,2024/02/18 00:00:00+00,2024/02/18 00:00:00+00,2024/02/18 00:00:00+00,354
-151.846498,59.339803,AK,Port Graham,59.339803,-151.846498,2024/02/18 00:00:00+00,2024/02/18 00:00:00+00,2024/02/18 00:00:00+00,355
-158.586416,56.965241,AK,Port Heiden,56.965241,-158.586416,2024/02/18 00:00:00+00,2024/02/18 00:00:00+00,2024/02/18 00:00:00+00,356
-152.856248,57.867012,AK,Port Lions,57.867012,-152.856248,2024/02/18 00:00:00+00,2024/02/18 00:00:00+00,2024/02/18 00:00:00+00,357
-133.60642,56.331881,AK,Port Protection,56.331881,-133.60642,2024/02/18 18:04:40+00,2024/02/18 18:30:50+00,2024/02/18 18:57:50+00,358
-149.296448,60.341624,AK,Primrose,60.341624,-149.296448,2024/02/18 00:00:00+00,2024/02/18 00:00:00+00,2024/02/18 00:00:00+00,359
-148.749374,70.365868,AK,Prudhoe Bay,70.365868,-148.749374,2024/02/18 00:00:00+00,2024/02/18 00:00:00+00,2024/02/18 00:00:00+00,360
-161.897243,59.751279,AK,Quinhagak,59.751279,-161.897243,2024/02/18 00:00:00+00,2024/02/18 00:00:00+00,2024/02/18 00:00:00+00,361
-149.921015,65.404915,AK,Rampart,65.404915,-149.921015,2024/02/18 00:00:00+00,2024/02/18 00:00:00+00,2024/02/18 00:00:00+00,362
-157.358503,61.757485,AK,Red Devil,61.757485,-157.358503,2024/02/18 00:00:00+00,2024/02/18 00:00:00+00,2024/02/18 00:00:00+00,363
-162.866869,68.064411,AK,Red Dog Mine,68.064411,-162.866869,2024/02/18 00:00:00+00,2024/02/18 00:00:00+00,2024/02/18 00:00:00+00,364
-151.052101,60.530833,AK,Ridgeway,60.530833,-151.052101,2024/02/18 00:00:00+00,2024/02/18 00:00:00+00,2024/02/18 00:00:00+00,365
-155.50054,64.72329,AK,Ruby,64.72329,-155.50054,2024/02/18 00:00:00+00,2024/02/18 00:00:00+00,2024/02/18 00:00:00+00,366
-161.362907,61.778662,AK,Russian Mission,61.778662,-161.362907,2024/02/18 00:00:00+00,2024/02/18 00:00:00+00,2024/02/18 00:00:00+00,367
-169.65994,56.571044,AK,St. George,56.571044,-169.65994,2024/02/18 00:00:00+00,2024/02/18 00:00:00+00,2024/02/18 00:00:00+00,368
-163.244257,62.062775,AK,St. Mary's,62.062775,-163.244257,2024/02/18 00:00:00+00,2024/02/18 00:00:00+00,2024/02/18 00:00:00+00,369
-162.134486,63.458499,AK,St. Michael,63.458499,-162.134486,2024/02/18 00:00:00+00,2024/02/18 00:00:00+00,2024/02/18 00:00:00+00,370
-170.322824,57.179076,AK,St. Paul,57.179076,-170.322824,2024/02/18 00:00:00+00,2024/02/18 00:00:00+00,2024/02/18 00:00:00+00,371
-151.311311,60.604229,AK,Salamatof,60.604229,-151.311311,2024/02/18 00:00:00+00,2024/02/18 00:00:00+00,2024/02/18 00:00:00+00,372
-146.88362,64.534103,AK,Salcha,64.534103,-146.88362,2024/02/18 00:00:00+00,2024/02/18 00:00:00+00,2024/02/18 00:00:00+00,373
-160.484344,55.31347,AK,Sand Point,55.31347,-160.484344,2024/02/18 00:00:00+00,2024/02/18 00:00:00+00,2024/02/18 00:00:00+00,374
-170.483324,63.679706,AK,Savoonga,63.679706,-170.483324,2024/02/18 00:00:00+00,2024/02/18 00:00:00+00,2024/02/18 00:00:00+00,375
-131.58915,55.323165,AK,Saxman,55.323165,-131.58915,2024/02/18 18:00:40+00,2024/02/18 18:31:10+00,2024/02/18 19:02:20+00,376
-165.583279,61.841929,AK,Scammon Bay,61.841929,-165.583279,2024/02/18 00:00:00+00,2024/02/18 00:00:00+00,2024/02/18 00:00:00+00,377
-160.002225,66.59209,AK,Selawik,66.59209,-160.002225,2024/02/18 00:00:00+00,2024/02/18 00:00:00+00,2024/02/18 00:00:00+00,378
-151.710387,59.43948,AK,Seldovia,59.43948,-151.710387,2024/02/18 00:00:00+00,2024/02/18 00:00:00+00,2024/02/18 00:00:00+00,379
-151.588755,59.46127,AK,Seldovia Village,59.46127,-151.588755,2024/02/18 00:00:00+00,2024/02/18 00:00:00+00,2024/02/18 00:00:00+00,380
-149.391581,60.124786,AK,Seward,60.124786,-149.391581,2024/02/18 00:00:00+00,2024/02/18 00:00:00+00,2024/02/18 00:00:00+00,381
-159.551368,62.661586,AK,Shageluk,62.661586,-159.551368,2024/02/18 00:00:00+00,2024/02/18 00:00:00+00,2024/02/18 00:00:00+00,382
-161.193514,64.354481,AK,Shaktoolik,64.354481,-161.193514,2024/02/18 00:00:00+00,2024/02/18 00:00:00+00,2024/02/18 00:00:00+00,383
-166.12533,66.232966,AK,Shishmaref,66.232966,-166.12533,2024/02/18 00:00:00+00,2024/02/18 00:00:00+00,2024/02/18 00:00:00+00,384
-157.149979,66.880505,AK,Shungnak,66.880505,-157.149979,2024/02/18 00:00:00+00,2024/02/18 00:00:00+00,2024/02/18 00:00:00+00,385
-145.358311,62.019311,AK,Silver Springs,62.019311,-145.358311,2024/02/18 00:00:00+00,2024/02/18 00:00:00+00,2024/02/18 00:00:00+00,386
-135.367396,57.193204,AK,Sitka,57.193204,-135.367396,2024/02/18 18:08:20+00,2024/02/18 18:30:50+00,2024/02/18 18:53:40+00,387
-135.27572,59.464431,AK,Skagway,59.464431,-135.27572,2024/02/18 18:14:30+00,2024/02/18 18:34:00+00,2024/02/18 18:54:00+00,388
-151.199994,61.888689,AK,Skwentna,61.888689,-151.199994,2024/02/18 00:00:00+00,2024/02/18 00:00:00+00,2024/02/18 00:00:00+00,389
-143.455303,62.603573,AK,Slana,62.603573,-143.455303,2024/02/18 00:00:00+00,2024/02/18 00:00:00+00,2024/02/18 00:00:00+00,390
-157.10302,61.653861,AK,Sleetmute,61.653861,-157.10302,2024/02/18 00:00:00+00,2024/02/18 00:00:00+00,2024/02/18 00:00:00+00,391
-151.069014,60.485318,AK,Soldotna,60.485318,-151.069014,2024/02/18 00:00:00+00,2024/02/18 00:00:00+00,2024/02/18 00:00:00+00,392
-149.315544,61.587561,AK,South Lakes,61.587561,-149.315544,2024/02/18 00:00:00+00,2024/02/18 00:00:00+00,2024/02/18 00:00:00+00,393
-156.994126,58.675534,AK,South Naknek,58.675534,-156.994126,2024/02/18 00:00:00+00,2024/02/18 00:00:00+00,2024/02/18 00:00:00+00,394
-147.787752,64.809734,AK,South Van Horn,64.809734,-147.787752,2024/02/18 00:00:00+00,2024/02/18 00:00:00+00,2024/02/18 00:00:00+00,395
-162.259981,63.473394,AK,Stebbins,63.473394,-162.259981,2024/02/18 00:00:00+00,2024/02/18 00:00:00+00,2024/02/18 00:00:00+00,396
-147.435058,64.925613,AK,Steele Creek,64.925613,-147.435058,2024/02/18 00:00:00+00,2024/02/18 00:00:00+00,2024/02/18 00:00:00+00,397
-150.80526,60.540148,AK,Sterling,60.540148,-150.80526,2024/02/18 00:00:00+00,2024/02/18 00:00:00+00,2024/02/18 00:00:00+00,398
-149.080307,66.023711,AK,Stevens Village,66.023711,-149.080307,2024/02/18 00:00:00+00,2024/02/18 00:00:00+00,2024/02/18 00:00:00+00,399
-156.590509,61.79201,AK,Stony River,61.79201,-156.590509,2024/02/18 00:00:00+00,2024/02/18 00:00:00+00,2024/02/18 00:00:00+00,400
-85.721478,31.236925,AL,Clayhatchee,31.236925,-85.721478,2024/02/18 17:40:20+00,2024/02/18 18:59:10+00,2024/02/18 20:16:20+00,401
-85.460454,31.882277,AL,Clayton,31.882277,-85.460454,2024/02/18 17:41:40+00,2024/02/18 19:00:30+00,2024/02/18 20:17:30+00,402
-86.561352,34.002179,AL,Cleveland,34.002179,-86.561352,2024/02/18 17:42:20+00,2024/02/18 19:01:20+00,2024/02/18 20:18:30+00,403
-85.611039,31.708516,AL,Clio,31.708516,-85.611039,2024/02/18 17:41:00+00,2024/02/18 19:00:00+00,2024/02/18 20:17:10+00,404
-87.349887,33.169901,AL,Coaling,33.169901,-87.349887,2024/02/18 17:39:40+00,2024/02/18 18:59:00+00,2024/02/18 20:16:40+00,405
-85.874602,34.073273,AL,Coats Bend,34.073273,-85.874602,2024/02/18 17:43:40+00,2024/02/18 19:02:30+00,2024/02/18 20:19:30+00,406
-85.910898,31.165836,AL,Coffee Springs,31.165836,-85.910898,2024/02/18 17:39:50+00,2024/02/18 18:58:50+00,2024/02/18 20:16:10+00,407
-88.086049,31.766564,AL,Coffeeville,31.766564,-88.086049,2024/02/18 17:36:20+00,2024/02/18 18:55:50+00,2024/02/18 20:14:00+00,408
-87.681329,33.243752,AL,Coker,33.243752,-87.681329,2024/02/18 17:39:10+00,2024/02/18 18:58:30+00,2024/02/18 20:16:20+00,409
-85.86861,34.267224,AL,Collinsville,34.267224,-85.86861,2024/02/18 17:43:50+00,2024/02/18 19:02:50+00,2024/02/18 20:19:40+00,410
-86.902001,33.941393,AL,Colony,33.941393,-86.902001,2024/02/18 17:41:40+00,2024/02/18 19:00:40+00,2024/02/18 20:18:00+00,411
-85.110202,31.295351,AL,Columbia,31.295351,-85.110202,2024/02/18 17:41:40+00,2024/02/18 19:00:20+00,2024/02/18 20:17:10+00,412
-86.615618,33.191452,AL,Columbiana,33.191452,-86.615618,2024/02/18 17:41:10+00,2024/02/18 19:00:20+00,2024/02/18 20:17:40+00,413
-87.040429,33.461988,AL,Concord,33.461988,-87.040429,2024/02/18 17:40:40+00,2024/02/18 18:59:50+00,2024/02/18 20:17:20+00,414
-86.326543,32.495394,AL,Coosada,32.495394,-86.326543,2024/02/18 17:40:40+00,2024/02/18 18:59:50+00,2024/02/18 20:17:10+00,415
-87.199416,33.761788,AL,Cordova,33.761788,-87.199416,2024/02/18 17:40:50+00,2024/02/18 19:00:00+00,2024/02/18 20:17:30+00,416
-87.454861,33.193047,AL,Cottondale,33.193047,-87.454861,2024/02/18 17:39:30+00,2024/02/18 18:58:50+00,2024/02/18 20:16:30+00,417
-85.29956,31.054033,AL,Cottonwood,31.054033,-85.29956,2024/02/18 17:40:50+00,2024/02/18 18:59:40+00,2024/02/18 20:16:40+00,418
-86.714706,33.818902,AL,County Line,33.818902,-86.714706,2024/02/18 17:41:40+00,2024/02/18 19:00:50+00,2024/02/18 20:18:10+00,419
-87.327892,34.669946,AL,Courtland,34.669946,-87.327892,2024/02/18 17:41:50+00,2024/02/18 19:00:50+00,2024/02/18 20:18:10+00,420
-85.309769,31.206248,AL,Cowarts,31.206248,-85.309769,2024/02/18 17:41:10+00,2024/02/18 18:59:50+00,2024/02/18 20:16:50+00,421
-88.009536,30.874249,AL,Creola,30.874249,-88.009536,2024/02/18 17:35:20+00,2024/02/18 18:54:40+00,2024/02/18 20:13:00+00,422
-85.999737,34.282697,AL,Crossville,34.282697,-85.999737,2024/02/18 17:43:40+00,2024/02/18 19:02:40+00,2024/02/18 20:19:30+00,423
-88.374798,32.440733,AL,Cuba,32.440733,-88.374798,2024/02/18 17:36:50+00,2024/02/18 18:56:10+00,2024/02/18 20:14:30+00,424
-86.840656,34.17687,AL,Cullman,34.17687,-86.840656,2024/02/18 17:42:00+00,2024/02/18 19:01:00+00,2024/02/18 20:18:20+00,425
-88.291774,31.713061,AL,Cullomburg,31.713061,-88.291774,2024/02/18 17:35:50+00,2024/02/18 18:55:20+00,2024/02/18 20:13:40+00,426
-85.305769,32.787637,AL,Cusseta,32.787637,-85.305769,2024/02/18 17:43:00+00,2024/02/18 19:01:50+00,2024/02/18 20:18:50+00,427
-85.776201,32.826114,AL,Dadeville,32.826114,-85.776201,2024/02/18 17:42:10+00,2024/02/18 19:01:10+00,2024/02/18 20:18:20+00,428
-85.711711,31.291534,AL,Daleville,31.291534,-85.711711,2024/02/18 17:40:20+00,2024/02/18 18:59:20+00,2024/02/18 20:16:30+00,429
-87.881783,30.626072,AL,Daphne,30.626072,-87.881783,2024/02/18 17:35:10+00,2024/02/18 18:54:40+00,2024/02/18 20:12:50+00,430
-88.171268,30.250913,AL,Dauphin Island,30.250913,-88.171268,2024/02/18 17:34:00+00,2024/02/18 18:53:30+00,2024/02/18 20:12:00+00,431
-85.634329,33.056839,AL,Daviston,33.056839,-85.634329,2024/02/18 17:42:50+00,2024/02/18 19:01:40+00,2024/02/18 20:18:40+00,432
-87.641573,32.350958,AL,Dayton,32.350958,-87.641573,2024/02/18 17:38:00+00,2024/02/18 18:57:20+00,2024/02/18 20:15:20+00,433
-86.389059,32.589044,AL,Deatsville,32.589044,-86.389059,2024/02/18 17:40:40+00,2024/02/18 18:59:50+00,2024/02/18 20:17:10+00,434
-86.989901,34.572995,AL,Decatur,34.572995,-86.989901,2024/02/18 17:42:20+00,2024/02/18 19:01:20+00,2024/02/18 20:18:30+00,435
-88.328023,31.218369,AL,Deer Park,31.218369,-88.328023,2024/02/18 17:35:10+00,2024/02/18 18:54:40+00,2024/02/18 20:13:00+00,436
-85.675905,33.440524,AL,Delta,33.440524,-85.675905,2024/02/18 17:43:10+00,2024/02/18 19:02:00+00,2024/02/18 20:19:00+00,437
-87.826678,32.499744,AL,Demopolis,32.499744,-87.826678,2024/02/18 17:37:50+00,2024/02/18 18:57:20+00,2024/02/18 20:15:20+00,438
-88.167831,34.027379,AL,Detroit,34.027379,-88.167831,2024/02/18 17:39:30+00,2024/02/18 18:58:40+00,2024/02/18 20:16:30+00,439
-86.885524,34.043275,AL,Dodge City,34.043275,-86.885524,2024/02/18 17:41:40+00,2024/02/18 19:00:50+00,2024/02/18 20:18:10+00,440
-87.081292,33.728116,AL,Dora,33.728116,-87.081292,2024/02/18 17:41:00+00,2024/02/18 19:00:10+00,2024/02/18 20:17:40+00,441
-85.406823,31.233698,AL,Dothan,31.233698,-85.406823,2024/02/18 17:40:50+00,2024/02/18 18:59:40+00,2024/02/18 20:16:40+00,442
-87.389447,34.149648,AL,Double Springs,34.149648,-87.389447,2024/02/18 17:41:00+00,2024/02/18 19:00:10+00,2024/02/18 20:17:40+00,443
-86.323386,34.168258,AL,Douglas,34.168258,-86.323386,2024/02/18 17:43:00+00,2024/02/18 19:01:50+00,2024/02/18 20:19:00+00,444
-86.369235,31.505407,AL,Dozier,31.505407,-86.369235,2024/02/18 17:39:20+00,2024/02/18 18:58:20+00,2024/02/18 20:15:50+00,445
-86.540245,33.495171,AL,Dunnavant,33.495171,-86.540245,2024/02/18 17:41:40+00,2024/02/18 19:00:40+00,2024/02/18 20:18:00+00,446
-85.91185,34.606152,AL,Dutton,34.606152,-85.91185,2024/02/18 17:44:20+00,2024/02/18 19:03:10+00,2024/02/18 20:20:00+00,447
-86.676753,33.400912,AL,Eagle Point,33.400912,-86.676753,2024/02/18 17:41:20+00,2024/02/18 19:00:20+00,2024/02/18 20:17:50+00,448
-87.055345,31.09144,AL,East Brewton,31.09144,-87.055345,2024/02/18 17:37:30+00,2024/02/18 18:56:40+00,2024/02/18 20:14:30+00,449
-86.79225,34.191206,AL,East Point,34.191206,-86.79225,2024/02/18 17:42:10+00,2024/02/18 19:01:10+00,2024/02/18 20:18:30+00,450
-86.041062,32.640222,AL,Eclectic,32.640222,-86.041062,2024/02/18 17:41:30+00,2024/02/18 19:00:30+00,2024/02/18 20:17:40+00,451
-86.95279,33.530099,AL,Edgewater,33.530099,-86.95279,2024/02/18 17:40:50+00,2024/02/18 19:00:00+00,2024/02/18 20:17:30+00,452
-85.414124,33.88374,AL,Edwardsville,33.88374,-85.414124,2024/02/18 17:44:20+00,2024/02/18 19:03:10+00,2024/02/18 20:19:50+00,453
-86.165054,34.075938,AL,Egypt,34.075938,-86.165054,2024/02/18 17:43:10+00,2024/02/18 19:02:00+00,2024/02/18 20:19:10+00,454
-86.077115,31.417218,AL,Elba,31.417218,-86.077115,2024/02/18 17:39:50+00,2024/02/18 18:58:50+00,2024/02/18 20:16:10+00,455
-87.595729,30.373753,AL,Elberta,30.373753,-87.595729,2024/02/18 17:35:20+00,2024/02/18 18:54:40+00,2024/02/18 20:12:50+00,456
-87.622869,33.923053,AL,Eldridge,33.923053,-87.622869,2024/02/18 17:40:20+00,2024/02/18 18:59:30+00,2024/02/18 20:17:10+00,457
-86.976971,34.932604,AL,Elkmont,34.932604,-86.976971,2024/02/18 17:42:50+00,2024/02/18 19:01:40+00,2024/02/18 20:18:50+00,458
-86.341025,32.556606,AL,Elmore,32.556606,-86.341025,2024/02/18 17:40:50+00,2024/02/18 18:59:50+00,2024/02/18 20:17:10+00,459
-88.316486,32.728678,AL,Emelle,32.728678,-88.316486,2024/02/18 17:37:20+00,2024/02/18 18:56:40+00,2024/02/18 20:14:50+00,460
-86.094381,32.447694,AL,Emerald Mountain,32.447694,-86.094381,2024/02/18 17:41:00+00,2024/02/18 19:00:10+00,2024/02/18 20:17:20+00,461
-85.844021,31.326898,AL,Enterprise,31.326898,-85.844021,2024/02/18 17:40:10+00,2024/02/18 18:59:10+00,2024/02/18 20:16:20+00,462
-88.141963,32.695049,AL,Epes,32.695049,-88.141963,2024/02/18 17:37:30+00,2024/02/18 18:57:00+00,2024/02/18 20:15:10+00,463
-86.123185,32.765659,AL,Equality,32.765659,-86.123185,2024/02/18 17:41:30+00,2024/02/18 19:00:30+00,2024/02/18 20:17:50+00,464
-88.216093,33.414066,AL,Ethelsville,33.414066,-88.216093,2024/02/18 17:38:30+00,2024/02/18 18:57:50+00,2024/02/18 20:15:50+00,465
-85.152709,31.909937,AL,Eufaula,31.909937,-85.152709,2024/02/18 17:42:20+00,2024/02/18 19:01:10+00,2024/02/18 20:18:00+00,466
-85.833966,31.031391,AL,Eunola,31.031391,-85.833966,2024/02/18 17:39:50+00,2024/02/18 18:58:40+00,2024/02/18 20:16:00+00,467
-87.900332,32.846247,AL,Eutaw,32.846247,-87.900332,2024/02/18 17:38:10+00,2024/02/18 18:57:30+00,2024/02/18 20:15:30+00,468
-86.765318,34.326504,AL,Eva,34.326504,-86.765318,2024/02/18 17:42:20+00,2024/02/18 19:01:20+00,2024/02/18 20:18:40+00,469
-86.976081,31.433216,AL,Evergreen,31.433216,-86.976081,2024/02/18 17:38:00+00,2024/02/18 18:57:20+00,2024/02/18 20:15:00+00,470
-87.343663,31.426386,AL,Excel,31.426386,-87.343663,2024/02/18 17:37:20+00,2024/02/18 18:56:40+00,2024/02/18 20:14:40+00,471
-86.919407,33.474802,AL,Fairfield,33.474802,-86.919407,2024/02/18 17:41:00+00,2024/02/18 19:00:00+00,2024/02/18 20:17:30+00,472
-88.072784,31.178002,AL,Fairford,31.178002,-88.072784,2024/02/18 17:35:30+00,2024/02/18 18:55:00+00,2024/02/18 20:13:20+00,473
-87.879122,30.52092,AL,Fairhope,30.52092,-87.879122,2024/02/18 17:35:00+00,2024/02/18 18:54:30+00,2024/02/18 20:12:40+00,474
-86.677724,34.250195,AL,Fairview,34.250195,-86.677724,2024/02/18 17:42:20+00,2024/02/18 19:01:20+00,2024/02/18 20:18:40+00,475
-86.909547,34.377019,AL,Falkville,34.377019,-86.909547,2024/02/18 17:42:10+00,2024/02/18 19:01:10+00,2024/02/18 20:18:30+00,476
-87.593789,32.457614,AL,Faunsdale,32.457614,-87.593789,2024/02/18 17:38:10+00,2024/02/18 18:57:30+00,2024/02/18 20:15:30+00,477
-87.831169,33.694215,AL,Fayette,33.694215,-87.831169,2024/02/18 17:39:30+00,2024/02/18 18:58:50+00,2024/02/18 20:16:40+00,478
-86.442774,33.168097,AL,Fayetteville,33.168097,-86.442774,2024/02/18 17:41:20+00,2024/02/18 19:00:30+00,2024/02/18 20:17:50+00,479
-85.873693,32.210377,AL,Fitzpatrick,32.210377,-85.873693,2024/02/18 17:41:10+00,2024/02/18 19:00:10+00,2024/02/18 20:17:20+00,480
-85.351592,33.017311,AL,Five Points,33.017311,-85.351592,2024/02/18 17:43:10+00,2024/02/18 19:02:10+00,2024/02/18 20:19:00+00,481
-87.256016,31.014816,AL,Flomaton,31.014816,-87.256016,2024/02/18 17:37:00+00,2024/02/18 18:56:10+00,2024/02/18 20:14:10+00,482
-86.318152,31.022391,AL,Florala,31.022391,-86.318152,2024/02/18 17:38:50+00,2024/02/18 18:57:50+00,2024/02/18 20:15:20+00,483
-87.666139,34.830323,AL,Florence,34.830323,-87.666139,2024/02/18 17:41:30+00,2024/02/18 19:00:30+00,2024/02/18 20:18:00+00,484
-87.664211,30.397009,AL,Foley,30.397009,-87.664211,2024/02/18 17:35:20+00,2024/02/18 18:54:40+00,2024/02/18 20:12:50+00,485
-86.900047,33.573701,AL,Forestdale,33.573701,-86.900047,2024/02/18 17:41:00+00,2024/02/18 19:00:10+00,2024/02/18 20:17:40+00,486
-87.867436,32.647435,AL,Forkland,32.647435,-87.867436,2024/02/18 17:38:00+00,2024/02/18 18:57:20+00,2024/02/18 20:15:20+00,487
-86.566359,31.986261,AL,Fort Deposit,31.986261,-86.566359,2024/02/18 17:39:40+00,2024/02/18 18:58:40+00,2024/02/18 20:16:20+00,488
-85.689447,34.457329,AL,Fort Payne,34.457329,-85.689447,2024/02/18 17:44:30+00,2024/02/18 19:03:20+00,2024/02/18 20:20:10+00,489
-85.716072,31.342576,AL,Fort Rucker,31.342576,-85.716072,2024/02/18 17:40:30+00,2024/02/18 18:59:20+00,2024/02/18 20:16:30+00,490
-85.78541,32.452693,AL,Franklin,32.452693,-85.78541,2024/02/18 17:41:40+00,2024/02/18 19:00:40+00,2024/02/18 20:17:50+00,491
-85.292306,32.983577,AL,Fredonia,32.983577,-85.292306,2024/02/18 17:43:20+00,2024/02/18 19:02:10+00,2024/02/18 20:19:00+00,492
-87.404182,31.439485,AL,Frisco City,31.439485,-87.404182,2024/02/18 17:37:20+00,2024/02/18 18:56:40+00,2024/02/18 20:14:30+00,493
-88.410937,31.34979,AL,Fruitdale,31.34979,-88.410937,2024/02/18 17:35:10+00,2024/02/18 18:54:40+00,2024/02/18 20:13:10+00,494
-85.431249,33.729539,AL,Fruithurst,33.729539,-85.431249,2024/02/18 17:44:00+00,2024/02/18 19:02:50+00,2024/02/18 20:19:40+00,495
-87.744212,31.790989,AL,Fulton,31.790989,-87.744212,2024/02/18 17:37:00+00,2024/02/18 18:56:30+00,2024/02/18 20:14:30+00,496
-86.801436,33.617363,AL,Fultondale,33.617363,-86.801436,2024/02/18 17:41:20+00,2024/02/18 19:00:20+00,2024/02/18 20:17:50+00,497
-85.905167,34.448957,AL,Fyffe,34.448957,-85.905167,2024/02/18 17:44:00+00,2024/02/18 19:02:50+00,2024/02/18 20:19:50+00,498
-86.016078,34.006597,AL,Gadsden,34.006597,-86.016078,2024/02/18 17:43:10+00,2024/02/18 19:02:10+00,2024/02/18 20:19:10+00,499
-88.160791,32.814934,AL,Gainesville,32.814934,-88.160791,2024/02/18 17:37:40+00,2024/02/18 18:57:00+00,2024/02/18 20:15:10+00,500
-86.09335,34.545063,AL,Langston,34.545063,-86.09335,2024/02/18 17:43:50+00,2024/02/18 19:02:40+00,2024/02/18 20:19:40+00,501
-86.571448,33.546847,AL,Leeds,33.546847,-86.571448,2024/02/18 17:41:40+00,2024/02/18 19:00:50+00,2024/02/18 20:18:10+00,502
-85.777897,34.178627,AL,Leesburg,34.178627,-85.777897,2024/02/18 17:44:00+00,2024/02/18 19:02:50+00,2024/02/18 20:19:40+00,503
-87.524282,34.69368,AL,Leighton,34.69368,-87.524282,2024/02/18 17:41:30+00,2024/02/18 19:00:30+00,2024/02/18 20:18:00+00,504
-87.972773,31.494971,AL,Leroy,31.494971,-87.972773,2024/02/18 17:36:10+00,2024/02/18 18:55:40+00,2024/02/18 20:13:50+00,505
-87.155534,34.982751,AL,Lester,34.982751,-87.155534,2024/02/18 17:42:40+00,2024/02/18 19:01:30+00,2024/02/18 20:18:40+00,506
-85.768722,31.307125,AL,Level Plains,31.307125,-85.768722,2024/02/18 17:40:20+00,2024/02/18 18:59:10+00,2024/02/18 20:16:30+00,507
-87.37283,34.959351,AL,Lexington,34.959351,-87.37283,2024/02/18 17:42:10+00,2024/02/18 19:01:10+00,2024/02/18 20:18:20+00,508
-86.456955,31.24005,AL,Libertyville,31.24005,-86.456955,2024/02/18 17:38:50+00,2024/02/18 18:57:50+00,2024/02/18 20:15:30+00,509
-87.420751,30.418904,AL,Lillian,30.418904,-87.420751,2024/02/18 17:35:50+00,2024/02/18 18:55:10+00,2024/02/18 20:13:10+00,510
-86.127876,33.580169,AL,Lincoln,33.580169,-86.127876,2024/02/18 17:42:30+00,2024/02/18 19:01:30+00,2024/02/18 20:18:40+00,511
-87.792583,32.30136,AL,Linden,32.30136,-87.792583,2024/02/18 17:37:40+00,2024/02/18 18:57:10+00,2024/02/18 20:15:10+00,512
-85.752278,33.312832,AL,Lineville,33.312832,-85.752278,2024/02/18 17:42:50+00,2024/02/18 19:01:50+00,2024/02/18 20:18:50+00,513
-86.926103,33.426005,AL,Lipscomb,33.426005,-86.926103,2024/02/18 17:40:50+00,2024/02/18 19:00:00+00,2024/02/18 20:17:30+00,514
-88.284092,32.171729,AL,Lisman,32.171729,-88.284092,2024/02/18 17:36:40+00,2024/02/18 18:56:10+00,2024/02/18 20:14:20+00,515
-87.670729,34.595121,AL,Littleville,34.595121,-87.670729,2024/02/18 17:41:10+00,2024/02/18 19:00:10+00,2024/02/18 20:17:40+00,516
-88.186929,32.595549,AL,Livingston,32.595549,-88.186929,2024/02/18 17:37:20+00,2024/02/18 18:56:50+00,2024/02/18 20:15:00+00,517
-85.598479,32.607946,AL,Loachapoka,32.607946,-85.598479,2024/02/18 17:42:20+00,2024/02/18 19:01:10+00,2024/02/18 20:18:20+00,518
-86.350273,31.013011,AL,Lockhart,31.013011,-86.350273,2024/02/18 17:38:50+00,2024/02/18 18:57:50+00,2024/02/18 20:15:20+00,519
-86.647093,33.876794,AL,Locust Fork,33.876794,-86.647093,2024/02/18 17:42:00+00,2024/02/18 19:01:00+00,2024/02/18 20:18:20+00,520
-85.965464,34.115916,AL,Lookout Mountain,34.115916,-85.965464,2024/02/18 17:43:30+00,2024/02/18 19:02:20+00,2024/02/18 20:19:20+00,521
-85.558336,31.781047,AL,Louisville,31.781047,-85.558336,2024/02/18 17:41:20+00,2024/02/18 19:00:20+00,2024/02/18 20:17:20+00,522
-86.610848,32.276422,AL,Lowndesboro,32.276422,-86.610848,2024/02/18 17:39:50+00,2024/02/18 18:59:00+00,2024/02/18 20:16:40+00,523
-87.739213,30.684588,AL,Loxley,30.684588,-87.739213,2024/02/18 17:35:30+00,2024/02/18 18:55:00+00,2024/02/18 20:13:10+00,524
-86.269082,31.718941,AL,Luverne,31.718941,-86.269082,2024/02/18 17:39:50+00,2024/02/18 18:58:50+00,2024/02/18 20:16:20+00,525
-87.548643,34.057591,AL,Lynn,34.057591,-87.548643,2024/02/18 17:40:30+00,2024/02/18 18:59:40+00,2024/02/18 20:17:20+00,526
-87.02666,33.303112,AL,McCalla,33.303112,-87.02666,2024/02/18 17:40:30+00,2024/02/18 18:59:40+00,2024/02/18 20:17:10+00,527
-86.938462,33.518576,AL,McDonald Chapel,33.518576,-86.938462,2024/02/18 17:40:50+00,2024/02/18 19:00:00+00,2024/02/18 20:17:30+00,528
-88.239221,33.403139,AL,Macedonia,33.403139,-88.239221,2024/02/18 17:38:30+00,2024/02/18 18:57:50+00,2024/02/18 20:15:50+00,529
-88.028369,31.264957,AL,McIntosh,31.264957,-88.028369,2024/02/18 17:35:50+00,2024/02/18 18:55:10+00,2024/02/18 20:13:30+00,530
-86.725954,31.54647,AL,McKenzie,31.54647,-86.725954,2024/02/18 17:38:40+00,2024/02/18 18:57:50+00,2024/02/18 20:15:30+00,531
-88.175749,33.1481,AL,McMullen,33.1481,-88.175749,2024/02/18 17:38:10+00,2024/02/18 18:57:30+00,2024/02/18 20:15:30+00,532
-86.76228,34.710533,AL,Madison,34.710533,-86.76228,2024/02/18 17:42:50+00,2024/02/18 19:01:50+00,2024/02/18 20:19:00+00,533
-85.399205,31.035635,AL,Madrid,31.035635,-85.399205,2024/02/18 17:40:40+00,2024/02/18 18:59:30+00,2024/02/18 20:16:30+00,534
-87.775895,30.40341,AL,Magnolia Springs,30.40341,-87.775895,2024/02/18 17:35:00+00,2024/02/18 18:54:30+00,2024/02/18 20:12:40+00,535
-88.000624,31.198806,AL,Malcolm,31.198806,-88.000624,2024/02/18 17:35:40+00,2024/02/18 18:55:10+00,2024/02/18 20:13:30+00,536
-85.522973,31.143698,AL,Malvern,31.143698,-85.522973,2024/02/18 17:40:30+00,2024/02/18 18:59:20+00,2024/02/18 20:16:30+00,537
-86.879694,32.784391,AL,Maplesville,32.784391,-86.879694,2024/02/18 17:40:10+00,2024/02/18 18:59:20+00,2024/02/18 20:16:50+00,538
-86.463728,32.672984,AL,Marbury,32.672984,-86.463728,2024/02/18 17:40:40+00,2024/02/18 18:59:50+00,2024/02/18 20:17:10+00,539
-86.463942,33.672861,AL,Margaret,33.672861,-86.463942,2024/02/18 17:42:00+00,2024/02/18 19:01:00+00,2024/02/18 20:18:20+00,540
-87.317333,32.631968,AL,Marion,32.631968,-87.317333,2024/02/18 17:39:00+00,2024/02/18 18:58:20+00,2024/02/18 20:16:10+00,541
-87.000043,33.549954,AL,Maytown,33.549954,-87.000043,2024/02/18 17:40:50+00,2024/02/18 19:00:00+00,2024/02/18 20:17:30+00,542
-86.704373,33.395235,AL,Meadowbrook,33.395235,-86.704373,2024/02/18 17:41:10+00,2024/02/18 19:00:10+00,2024/02/18 20:17:40+00,543
-87.430649,31.378141,AL,Megargel,31.378141,-87.430649,2024/02/18 17:37:10+00,2024/02/18 18:56:30+00,2024/02/18 20:14:30+00,544
-88.305942,33.137044,AL,Memphis,33.137044,-88.305942,2024/02/18 17:38:00+00,2024/02/18 18:57:20+00,2024/02/18 20:15:20+00,545
-85.589704,34.563209,AL,Mentone,34.563209,-85.589704,2024/02/18 17:44:50+00,2024/02/18 19:03:30+00,2024/02/18 20:20:20+00,546
-86.580559,34.874913,AL,Meridianville,34.874913,-86.580559,2024/02/18 17:43:20+00,2024/02/18 19:02:20+00,2024/02/18 20:19:20+00,547
-86.922414,33.455272,AL,Midfield,33.455272,-86.922414,2024/02/18 17:41:00+00,2024/02/18 19:00:00+00,2024/02/18 20:17:30+00,548
-85.493674,31.315675,AL,Midland City,31.315675,-85.493674,2024/02/18 17:40:50+00,2024/02/18 18:59:40+00,2024/02/18 20:16:40+00,549
-85.524417,32.076373,AL,Midway,32.076373,-85.524417,2024/02/18 17:41:40+00,2024/02/18 19:00:40+00,2024/02/18 20:17:40+00,550
-86.256886,33.18658,AL,Mignon,33.18658,-86.256886,2024/02/18 17:41:50+00,2024/02/18 19:00:50+00,2024/02/18 20:18:10+00,551
-86.373914,32.501474,AL,Millbrook,32.501474,-86.373914,2024/02/18 17:40:40+00,2024/02/18 18:59:40+00,2024/02/18 20:17:10+00,552
-85.929828,33.191458,AL,Millerville,33.191458,-85.929828,2024/02/18 17:42:20+00,2024/02/18 19:01:20+00,2024/02/18 20:18:30+00,553
-88.082382,33.555935,AL,Millport,33.555935,-88.082382,2024/02/18 17:38:50+00,2024/02/18 18:58:10+00,2024/02/18 20:16:10+00,554
-88.327956,31.621199,AL,Millry,31.621199,-88.327956,2024/02/18 17:35:40+00,2024/02/18 18:55:10+00,2024/02/18 20:13:30+00,555
-86.940073,33.539011,AL,Minor,33.539011,-86.940073,2024/02/18 17:41:00+00,2024/02/18 19:00:10+00,2024/02/18 20:17:40+00,556
-88.100226,30.668426,AL,Mobile,30.668426,-88.100226,2024/02/18 17:34:50+00,2024/02/18 18:54:20+00,2024/02/18 20:12:40+00,557
-87.327714,31.516223,AL,Monroeville,31.516223,-87.327714,2024/02/18 17:37:30+00,2024/02/18 18:56:50+00,2024/02/18 20:14:40+00,558
-86.847702,33.126053,AL,Montevallo,33.126053,-86.847702,2024/02/18 17:40:30+00,2024/02/18 18:59:40+00,2024/02/18 20:17:10+00,559
-86.267307,32.348503,AL,Montgomery,32.348503,-86.267307,2024/02/18 17:40:40+00,2024/02/18 18:59:40+00,2024/02/18 20:17:10+00,560
-86.493786,33.603429,AL,Moody,33.603429,-86.493786,2024/02/18 17:41:50+00,2024/02/18 19:00:50+00,2024/02/18 20:18:10+00,561
-86.52038,34.852143,AL,Moores Mill,34.852143,-86.52038,2024/02/18 17:43:30+00,2024/02/18 19:02:20+00,2024/02/18 20:19:30+00,562
-86.880025,34.625883,AL,Mooresville,34.625883,-86.880025,2024/02/18 17:42:30+00,2024/02/18 19:01:30+00,2024/02/18 20:18:40+00,563
-86.800755,33.746223,AL,Morris,33.746223,-86.800755,2024/02/18 17:41:30+00,2024/02/18 19:00:30+00,2024/02/18 20:18:00+00,564
-85.488284,33.417996,AL,Morrison Crossroads,33.417996,-85.488284,2024/02/18 17:43:30+00,2024/02/18 19:02:20+00,2024/02/18 20:19:20+00,565
-86.679435,32.188758,AL,Mosses,32.188758,-86.679435,2024/02/18 17:39:40+00,2024/02/18 18:58:50+00,2024/02/18 20:16:20+00,566
-87.282707,34.488302,AL,Moulton,34.488302,-87.282707,2024/02/18 17:41:40+00,2024/02/18 19:00:40+00,2024/02/18 20:18:00+00,567
-87.627545,32.996542,AL,Moundville,32.996542,-87.627545,2024/02/18 17:38:50+00,2024/02/18 18:58:10+00,2024/02/18 20:16:00+00,568
-86.73447,33.491488,AL,Mountain Brook,33.491488,-86.73447,2024/02/18 17:41:20+00,2024/02/18 19:00:20+00,2024/02/18 20:17:50+00,569
-86.13304,33.078454,AL,Mount Olive,33.078454,-86.13304,2024/02/18 17:41:50+00,2024/02/18 19:00:50+00,2024/02/18 20:18:00+00,570
-86.87549,33.669286,AL,Mount Olive,33.669286,-86.87549,2024/02/18 17:41:20+00,2024/02/18 19:00:20+00,2024/02/18 20:17:50+00,571
-88.013166,31.087727,AL,Mount Vernon,31.087727,-88.013166,2024/02/18 17:35:40+00,2024/02/18 18:55:00+00,2024/02/18 20:13:20+00,572
-88.026619,31.062763,AL,Movico,31.062763,-88.026619,2024/02/18 17:35:30+00,2024/02/18 18:54:50+00,2024/02/18 20:13:10+00,573
-86.972304,33.556313,AL,Mulga,33.556313,-86.972304,2024/02/18 17:40:50+00,2024/02/18 19:00:00+00,2024/02/18 20:17:30+00,574
-85.953809,33.527644,AL,Munford,33.527644,-85.953809,2024/02/18 17:42:50+00,2024/02/18 19:01:40+00,2024/02/18 20:18:50+00,575
-87.633767,34.742657,AL,Muscle Shoals,34.742657,-87.633767,2024/02/18 17:41:20+00,2024/02/18 19:00:20+00,2024/02/18 20:17:50+00,576
-87.949261,32.252088,AL,Myrtlewood,32.252088,-87.949261,2024/02/18 17:37:20+00,2024/02/18 18:56:40+00,2024/02/18 20:14:50+00,577
-87.995757,32.111393,AL,Nanafalia,32.111393,-87.995757,2024/02/18 17:37:00+00,2024/02/18 18:56:30+00,2024/02/18 20:14:30+00,578
-85.669104,33.855501,AL,Nances Creek,33.855501,-85.669104,2024/02/18 17:43:40+00,2024/02/18 19:02:40+00,2024/02/18 20:19:30+00,579
-85.454929,31.314925,AL,Napier Field,31.314925,-85.454929,2024/02/18 17:41:00+00,2024/02/18 18:59:50+00,2024/02/18 20:16:50+00,580
-87.601409,34.090354,AL,Natural Bridge,34.090354,-87.601409,2024/02/18 17:40:30+00,2024/02/18 18:59:40+00,2024/02/18 20:17:20+00,581
-87.48544,33.984386,AL,Nauvoo,33.984386,-87.48544,2024/02/18 17:40:40+00,2024/02/18 18:59:50+00,2024/02/18 20:17:20+00,582
-86.620614,33.979779,AL,Nectar,33.979779,-86.620614,2024/02/18 17:42:10+00,2024/02/18 19:01:10+00,2024/02/18 20:18:30+00,583
-88.336563,31.987,AL,Needham,31.987,-88.336563,2024/02/18 17:36:10+00,2024/02/18 18:55:40+00,2024/02/18 20:14:00+00,584
-87.535614,32.591672,AL,Newbern,32.591672,-87.535614,2024/02/18 17:38:40+00,2024/02/18 18:57:50+00,2024/02/18 20:15:50+00,585
-85.919028,31.37671,AL,New Brockton,31.37671,-85.919028,2024/02/18 17:40:00+00,2024/02/18 18:59:00+00,2024/02/18 20:16:20+00,586
-86.412372,34.537972,AL,New Hope,34.537972,-86.412372,2024/02/18 17:43:10+00,2024/02/18 19:02:10+00,2024/02/18 20:19:10+00,587
-86.425818,34.892335,AL,New Market,34.892335,-86.425818,2024/02/18 17:43:40+00,2024/02/18 19:02:30+00,2024/02/18 20:19:30+00,588
-85.784536,33.026041,AL,New Site,33.026041,-85.784536,2024/02/18 17:42:20+00,2024/02/18 19:01:20+00,2024/02/18 20:18:30+00,589
-85.588307,31.341229,AL,Newton,31.341229,-85.588307,2024/02/18 17:40:40+00,2024/02/18 18:59:40+00,2024/02/18 20:16:40+00,590
-86.228002,34.133682,AL,New Union,34.133682,-86.228002,2024/02/18 17:43:00+00,2024/02/18 19:02:00+00,2024/02/18 20:19:00+00,591
-85.33669,31.420604,AL,Newville,31.420604,-85.33669,2024/02/18 17:41:20+00,2024/02/18 19:00:10+00,2024/02/18 20:17:00+00,592
-86.100838,32.855488,AL,Nixburg,32.855488,-86.100838,2024/02/18 17:41:40+00,2024/02/18 19:00:40+00,2024/02/18 20:17:50+00,593
-87.305717,34.680023,AL,North Courtland,34.680023,-87.305717,2024/02/18 17:42:00+00,2024/02/18 19:00:50+00,2024/02/18 20:18:20+00,594
-87.100725,33.367769,AL,North Johns,33.367769,-87.100725,2024/02/18 17:40:20+00,2024/02/18 18:59:40+00,2024/02/18 20:17:10+00,595
-87.596396,33.257565,AL,Northport,33.257565,-87.596396,2024/02/18 17:39:20+00,2024/02/18 18:58:40+00,2024/02/18 20:16:20+00,596
-85.668577,32.555409,AL,Notasulga,32.555409,-85.668577,2024/02/18 17:42:00+00,2024/02/18 19:01:00+00,2024/02/18 20:18:00+00,597
-86.303727,33.190359,AL,Oak Grove,33.190359,-86.303727,2024/02/18 17:41:40+00,2024/02/18 19:00:50+00,2024/02/18 20:18:00+00,598
-87.085234,31.92162,AL,Oak Hill,31.92162,-87.085234,2024/02/18 17:38:30+00,2024/02/18 18:57:50+00,2024/02/18 20:15:30+00,599
-87.388699,33.714322,AL,Oakman,33.714322,-87.388699,2024/02/18 17:40:30+00,2024/02/18 18:59:40+00,2024/02/18 20:17:10+00,600
-151.288605,59.746867,AK,Fritz Creek,59.746867,-151.288605,2024/02/18 00:00:00+00,2024/02/18 00:00:00+00,2024/02/18 00:00:00+00,601
-150.788736,60.484313,AK,Funny River,60.484313,-150.788736,2024/02/18 00:00:00+00,2024/02/18 00:00:00+00,2024/02/18 00:00:00+00,602
-145.305188,62.368038,AK,Gakona,62.368038,-145.305188,2024/02/18 00:00:00+00,2024/02/18 00:00:00+00,2024/02/18 00:00:00+00,603
-156.873394,64.741422,AK,Galena,64.741422,-156.873394,2024/02/18 00:00:00+00,2024/02/18 00:00:00+00,2024/02/18 00:00:00+00,604
-171.714835,63.775872,AK,Gambell,63.775872,-171.714835,2024/02/18 00:00:00+00,2024/02/18 00:00:00+00,2024/02/18 00:00:00+00,605
-135.512547,58.050105,AK,Game Creek,58.050105,-135.512547,2024/02/18 18:10:50+00,2024/02/18 18:31:50+00,2024/02/18 18:53:20+00,606
-149.222683,61.566857,AK,Gateway,61.566857,-149.222683,2024/02/18 00:00:00+00,2024/02/18 00:00:00+00,2024/02/18 00:00:00+00,607
-141.193584,62.703078,AK,Alcan Border,62.703078,-141.193584,2024/02/18 00:00:00+00,2024/02/18 00:00:00+00,2024/02/18 00:00:00+00,608
-147.772591,61.848035,AK,Glacier View,61.848035,-147.772591,2024/02/18 00:00:00+00,2024/02/18 00:00:00+00,2024/02/18 00:00:00+00,609
-145.840752,62.153307,AK,Glennallen,62.153307,-145.840752,2024/02/18 00:00:00+00,2024/02/18 00:00:00+00,2024/02/18 00:00:00+00,610
-148.02732,64.942151,AK,Goldstream,64.942151,-148.02732,2024/02/18 00:00:00+00,2024/02/18 00:00:00+00,2024/02/18 00:00:00+00,611
-162.998943,64.563902,AK,Golovin,64.563902,-162.998943,2024/02/18 00:00:00+00,2024/02/18 00:00:00+00,2024/02/18 00:00:00+00,612
-161.575325,59.127165,AK,Goodnews Bay,59.127165,-161.575325,2024/02/18 00:00:00+00,2024/02/18 00:00:00+00,2024/02/18 00:00:00+00,613
-160.112989,62.896051,AK,Grayling,62.896051,-160.112989,2024/02/18 00:00:00+00,2024/02/18 00:00:00+00,2024/02/18 00:00:00+00,614
-145.444965,62.215434,AK,Gulkana,62.215434,-145.444965,2024/02/18 00:00:00+00,2024/02/18 00:00:00+00,2024/02/18 00:00:00+00,615
-135.728152,58.434657,AK,Gustavus,58.434657,-135.728152,2024/02/18 18:12:10+00,2024/02/18 18:32:20+00,2024/02/18 18:52:50+00,616
-135.472169,59.260434,AK,Haines,59.260434,-135.472169,2024/02/18 18:14:10+00,2024/02/18 18:33:40+00,2024/02/18 18:53:30+00,617
-151.223764,59.569581,AK,Halibut Cove,59.569581,-151.223764,2024/02/18 00:00:00+00,2024/02/18 00:00:00+00,2024/02/18 00:00:00+00,618
-151.528868,59.898514,AK,Happy Valley,59.898514,-151.528868,2024/02/18 00:00:00+00,2024/02/18 00:00:00+00,2024/02/18 00:00:00+00,619
-146.530599,64.381305,AK,Harding-Birch Lakes,64.381305,-146.530599,2024/02/18 00:00:00+00,2024/02/18 00:00:00+00,2024/02/18 00:00:00+00,620
-148.970842,63.959632,AK,Healy,63.959632,-148.970842,2024/02/18 00:00:00+00,2024/02/18 00:00:00+00,2024/02/18 00:00:00+00,621
-144.681574,64.009705,AK,Healy Lake,64.009705,-144.681574,2024/02/18 00:00:00+00,2024/02/18 00:00:00+00,2024/02/18 00:00:00+00,622
-133.306569,57.417759,AK,Hobart Bay,57.417759,-133.306569,2024/02/18 18:07:20+00,2024/02/18 18:32:40+00,2024/02/18 18:58:40+00,623
-132.701922,55.515474,AK,Hollis,55.515474,-132.701922,2024/02/18 18:01:50+00,2024/02/18 18:30:30+00,2024/02/18 18:59:50+00,624
-159.858776,62.185115,AK,Holy Cross,62.185115,-159.858776,2024/02/18 00:00:00+00,2024/02/18 00:00:00+00,2024/02/18 00:00:00+00,625
-151.513095,59.647503,AK,Homer,59.647503,-151.513095,2024/02/18 00:00:00+00,2024/02/18 00:00:00+00,2024/02/18 00:00:00+00,626
-135.431474,58.12201,AK,Hoonah,58.12201,-135.431474,2024/02/18 18:11:00+00,2024/02/18 18:32:00+00,2024/02/18 18:53:40+00,627
-166.111471,61.509167,AK,Hooper Bay,61.509167,-166.111471,2024/02/18 00:00:00+00,2024/02/18 00:00:00+00,2024/02/18 00:00:00+00,628
-149.632991,60.886124,AK,Hope,60.886124,-149.632991,2024/02/18 00:00:00+00,2024/02/18 00:00:00+00,2024/02/18 00:00:00+00,629
-149.80061,61.615303,AK,Houston,61.615303,-149.80061,2024/02/18 00:00:00+00,2024/02/18 00:00:00+00,2024/02/18 00:00:00+00,630
-154.237627,66.045217,AK,Hughes,66.045217,-154.237627,2024/02/18 00:00:00+00,2024/02/18 00:00:00+00,2024/02/18 00:00:00+00,631
-156.310953,65.705524,AK,Huslia,65.705524,-156.310953,2024/02/18 00:00:00+00,2024/02/18 00:00:00+00,2024/02/18 00:00:00+00,632
-132.820438,55.205842,AK,Hydaburg,55.205842,-132.820438,2024/02/18 18:01:10+00,2024/02/18 18:30:00+00,2024/02/18 18:59:30+00,633
-130.038166,55.98153,AK,Hyder,55.98153,-130.038166,2024/02/18 18:01:40+00,2024/02/18 18:33:30+00,2024/02/18 19:06:00+00,634
-155.863275,59.300989,AK,Igiugig,59.300989,-155.863275,2024/02/18 00:00:00+00,2024/02/18 00:00:00+00,2024/02/18 00:00:00+00,635
-154.883752,59.778342,AK,Iliamna,59.778342,-154.883752,2024/02/18 00:00:00+00,2024/02/18 00:00:00+00,2024/02/18 00:00:00+00,636
-159.493298,55.918199,AK,Ivanof Bay,55.918199,-159.493298,2024/02/18 00:00:00+00,2024/02/18 00:00:00+00,2024/02/18 00:00:00+00,637
-134.178445,58.37291,AK,Juneau,58.37291,-134.178445,2024/02/18 18:10:30+00,2024/02/18 18:33:20+00,2024/02/18 18:56:40+00,638
-151.436347,59.674535,AK,Kachemak,59.674535,-151.436347,2024/02/18 00:00:00+00,2024/02/18 00:00:00+00,2024/02/18 00:00:00+00,639
-133.903663,56.97532,AK,Kake,56.97532,-133.903663,2024/02/18 18:06:30+00,2024/02/18 18:31:40+00,2024/02/18 18:57:10+00,640
-143.629435,70.121452,AK,Kaktovik,70.121452,-143.629435,2024/02/18 00:00:00+00,2024/02/18 00:00:00+00,2024/02/18 00:00:00+00,641
-151.220302,60.453399,AK,Kalifornsky,60.453399,-151.220302,2024/02/18 00:00:00+00,2024/02/18 00:00:00+00,2024/02/18 00:00:00+00,642
-158.778761,64.314143,AK,Kaltag,64.314143,-158.778761,2024/02/18 00:00:00+00,2024/02/18 00:00:00+00,2024/02/18 00:00:00+00,643
-154.363413,57.590981,AK,Karluk,57.590981,-154.363413,2024/02/18 00:00:00+00,2024/02/18 00:00:00+00,2024/02/18 00:00:00+00,644
-132.406834,55.561145,AK,Kasaan,55.561145,-132.406834,2024/02/18 18:01:50+00,2024/02/18 18:30:50+00,2024/02/18 19:00:40+00,645
-162.536564,60.863834,AK,Kasigluk,60.863834,-162.536564,2024/02/18 00:00:00+00,2024/02/18 00:00:00+00,2024/02/18 00:00:00+00,646
-151.232794,60.319466,AK,Kasilof,60.319466,-151.232794,2024/02/18 00:00:00+00,2024/02/18 00:00:00+00,2024/02/18 00:00:00+00,647
-151.20806,60.56224,AK,Kenai,60.56224,-151.20806,2024/02/18 00:00:00+00,2024/02/18 00:00:00+00,2024/02/18 00:00:00+00,648
-144.821315,61.621616,AK,Kenny Lake,61.621616,-144.821315,2024/02/18 00:00:00+00,2024/02/18 00:00:00+00,2024/02/18 00:00:00+00,649
-131.674552,55.357145,AK,Ketchikan,55.357145,-131.674552,2024/02/18 18:00:50+00,2024/02/18 18:31:10+00,2024/02/18 19:02:10+00,650
-160.434364,66.972586,AK,Kiana,66.972586,-160.434364,2024/02/18 00:00:00+00,2024/02/18 00:00:00+00,2024/02/18 00:00:00+00,651
-162.316806,55.084993,AK,King Cove,55.084993,-162.316806,2024/02/18 00:00:00+00,2024/02/18 00:00:00+00,2024/02/18 00:00:00+00,652
-156.528544,58.735227,AK,King Salmon,58.735227,-156.528544,2024/02/18 00:00:00+00,2024/02/18 00:00:00+00,2024/02/18 00:00:00+00,653
-164.062208,59.937452,AK,Kipnuk,59.937452,-164.062208,2024/02/18 00:00:00+00,2024/02/18 00:00:00+00,2024/02/18 00:00:00+00,654
-164.535573,67.726893,AK,Kivalina,67.726893,-164.535573,2024/02/18 00:00:00+00,2024/02/18 00:00:00+00,2024/02/18 00:00:00+00,655
-133.08613,55.556425,AK,Klawock,55.556425,-133.08613,2024/02/18 18:02:20+00,2024/02/18 18:30:20+00,2024/02/18 18:59:00+00,656
-135.882595,59.401932,AK,Klukwan,59.401932,-135.882595,2024/02/18 18:15:00+00,2024/02/18 18:33:30+00,2024/02/18 18:52:20+00,657
-149.622601,61.507645,AK,Knik-Fairview,61.507645,-149.622601,2024/02/18 00:00:00+00,2024/02/18 00:00:00+00,2024/02/18 00:00:00+00,658
-149.007489,61.461903,AK,Knik River,61.461903,-149.007489,2024/02/18 00:00:00+00,2024/02/18 00:00:00+00,2024/02/18 00:00:00+00,659
-156.904071,66.923402,AK,Kobuk,66.923402,-156.904071,2024/02/18 00:00:00+00,2024/02/18 00:00:00+00,2024/02/18 00:00:00+00,660
-152.419712,57.791192,AK,Kodiak,57.791192,-152.419712,2024/02/18 00:00:00+00,2024/02/18 00:00:00+00,2024/02/18 00:00:00+00,661
-152.595907,57.76795,AK,Kodiak Station,57.76795,-152.595907,2024/02/18 00:00:00+00,2024/02/18 00:00:00+00,2024/02/18 00:00:00+00,662
-154.746007,59.412109,AK,Kokhanok,59.412109,-154.746007,2024/02/18 00:00:00+00,2024/02/18 00:00:00+00,2024/02/18 00:00:00+00,663
-157.22476,59.696656,AK,Koliganek,59.696656,-157.22476,2024/02/18 00:00:00+00,2024/02/18 00:00:00+00,2024/02/18 00:00:00+00,664
-162.847017,59.991638,AK,Kongiganak,59.991638,-162.847017,2024/02/18 00:00:00+00,2024/02/18 00:00:00+00,2024/02/18 00:00:00+00,665
-163.536654,63.02919,AK,Kotlik,63.02919,-163.536654,2024/02/18 00:00:00+00,2024/02/18 00:00:00+00,2024/02/18 00:00:00+00,666
-162.503478,66.877089,AK,Kotzebue,66.877089,-162.503478,2024/02/18 00:00:00+00,2024/02/18 00:00:00+00,2024/02/18 00:00:00+00,667
-161.145458,64.941084,AK,Koyuk,64.941084,-161.145458,2024/02/18 00:00:00+00,2024/02/18 00:00:00+00,2024/02/18 00:00:00+00,668
-157.693531,64.902073,AK,Koyukuk,64.902073,-157.693531,2024/02/18 00:00:00+00,2024/02/18 00:00:00+00,2024/02/18 00:00:00+00,669
-132.972152,56.821295,AK,Kupreanof,56.821295,-132.972152,2024/02/18 18:05:30+00,2024/02/18 18:32:10+00,2024/02/18 18:59:30+00,670
-161.430966,60.79333,AK,Kwethluk,60.79333,-161.430966,2024/02/18 00:00:00+00,2024/02/18 00:00:00+00,2024/02/18 00:00:00+00,671
-163.177317,59.877575,AK,Kwigillingok,59.877575,-163.177317,2024/02/18 00:00:00+00,2024/02/18 00:00:00+00,2024/02/18 00:00:00+00,672
-146.540163,62.30162,AK,Lake Louise,62.30162,-146.540163,2024/02/18 00:00:00+00,2024/02/18 00:00:00+00,2024/02/18 00:00:00+00,673
-152.461794,63.790253,AK,Lake Minchumina,63.790253,-152.461794,2024/02/18 00:00:00+00,2024/02/18 00:00:00+00,2024/02/18 00:00:00+00,674
-154.001155,57.529893,AK,Larsen Bay,57.529893,-154.001155,2024/02/18 00:00:00+00,2024/02/18 00:00:00+00,2024/02/18 00:00:00+00,675
-148.925582,61.658227,AK,Lazy Mountain,61.658227,-148.925582,2024/02/18 00:00:00+00,2024/02/18 00:00:00+00,2024/02/18 00:00:00+00,676
-156.901021,59.068246,AK,Levelock,59.068246,-156.901021,2024/02/18 00:00:00+00,2024/02/18 00:00:00+00,2024/02/18 00:00:00+00,677
-155.238066,61.330449,AK,Lime Village,61.330449,-155.238066,2024/02/18 00:00:00+00,2024/02/18 00:00:00+00,2024/02/18 00:00:00+00,678
-148.422784,65.476506,AK,Livengood,65.476506,-148.422784,2024/02/18 00:00:00+00,2024/02/18 00:00:00+00,2024/02/18 00:00:00+00,679
-131.639976,55.606676,AK,Loring,55.606676,-131.639976,2024/02/18 18:01:30+00,2024/02/18 18:31:30+00,2024/02/18 19:02:20+00,680
-149.493807,60.076063,AK,Lowell Point,60.076063,-149.493807,2024/02/18 00:00:00+00,2024/02/18 00:00:00+00,2024/02/18 00:00:00+00,681
-160.358929,61.513975,AK,Lower Kalskag,61.513975,-160.358929,2024/02/18 00:00:00+00,2024/02/18 00:00:00+00,2024/02/18 00:00:00+00,682
-135.589046,59.412212,AK,Lutak,59.412212,-135.589046,2024/02/18 18:14:40+00,2024/02/18 18:33:40+00,2024/02/18 18:53:10+00,683
-142.864693,61.453957,AK,McCarthy,61.453957,-142.864693,2024/02/18 00:00:00+00,2024/02/18 00:00:00+00,2024/02/18 00:00:00+00,684
-155.568422,62.938875,AK,McGrath,62.938875,-155.568422,2024/02/18 00:00:00+00,2024/02/18 00:00:00+00,2024/02/18 00:00:00+00,685
-150.645281,65.018757,AK,Manley Hot Springs,65.018757,-150.645281,2024/02/18 00:00:00+00,2024/02/18 00:00:00+00,2024/02/18 00:00:00+00,686
-158.906445,58.727293,AK,Manokotak,58.727293,-158.906445,2024/02/18 00:00:00+00,2024/02/18 00:00:00+00,2024/02/18 00:00:00+00,687
-162.06087,61.871555,AK,Marshall,61.871555,-162.06087,2024/02/18 00:00:00+00,2024/02/18 00:00:00+00,2024/02/18 00:00:00+00,688
-149.609611,61.637987,AK,Meadow Lakes,61.637987,-149.609611,2024/02/18 00:00:00+00,2024/02/18 00:00:00+00,2024/02/18 00:00:00+00,689
-166.267711,60.370272,AK,Mekoryuk,60.370272,-166.267711,2024/02/18 00:00:00+00,2024/02/18 00:00:00+00,2024/02/18 00:00:00+00,690
-146.758031,62.146098,AK,Mendeltna,62.146098,-146.758031,2024/02/18 00:00:00+00,2024/02/18 00:00:00+00,2024/02/18 00:00:00+00,691
-143.561486,63.011677,AK,Mentasta Lake,63.011677,-143.561486,2024/02/18 00:00:00+00,2024/02/18 00:00:00+00,2024/02/18 00:00:00+00,692
-164.49911,60.810993,AK,Mertarvik,60.810993,-164.49911,2024/02/18 00:00:00+00,2024/02/18 00:00:00+00,2024/02/18 00:00:00+00,693
-131.555726,55.114699,AK,Metlakatla,55.114699,-131.555726,2024/02/18 18:00:10+00,2024/02/18 18:31:00+00,2024/02/18 19:02:30+00,694
-152.367542,57.815501,AK,Mill Bay,57.815501,-152.367542,2024/02/18 00:00:00+00,2024/02/18 00:00:00+00,2024/02/18 00:00:00+00,695
-149.59021,65.089635,AK,Minto,65.089635,-149.59021,2024/02/18 00:00:00+00,2024/02/18 00:00:00+00,2024/02/18 00:00:00+00,696
-147.166627,64.716369,AK,Moose Creek,64.716369,-147.166627,2024/02/18 00:00:00+00,2024/02/18 00:00:00+00,2024/02/18 00:00:00+00,697
-149.468361,60.505936,AK,Moose Pass,60.505936,-149.468361,2024/02/18 00:00:00+00,2024/02/18 00:00:00+00,2024/02/18 00:00:00+00,698
-136.199106,59.475103,AK,Mosquito Lake,59.475103,-136.199106,2024/02/18 18:15:40+00,2024/02/18 18:33:20+00,2024/02/18 18:51:30+00,699
-163.695257,62.091906,AK,Mountain Village,62.091906,-163.695257,2024/02/18 00:00:00+00,2024/02/18 00:00:00+00,2024/02/18 00:00:00+00,700
-135.356493,59.151183,AK,Mud Bay,59.151183,-135.356493,2024/02/18 18:13:50+00,2024/02/18 18:33:40+00,2024/02/18 18:53:50+00,701
-149.467798,60.870068,AK,Sunrise,60.870068,-149.467798,2024/02/18 00:00:00+00,2024/02/18 00:00:00+00,2024/02/18 00:00:00+00,702
-150.587941,61.54028,AK,Susitna,61.54028,-150.587941,2024/02/18 00:00:00+00,2024/02/18 00:00:00+00,2024/02/18 00:00:00+00,703
-158.664343,59.288961,AK,Aleknagik,59.288961,-158.664343,2024/02/18 00:00:00+00,2024/02/18 00:00:00+00,2024/02/18 00:00:00+00,704
-149.748537,62.147592,AK,Susitna North,62.147592,-149.748537,2024/02/18 00:00:00+00,2024/02/18 00:00:00+00,2024/02/18 00:00:00+00,705
-148.874181,61.741436,AK,Sutton-Alpine,61.741436,-148.874181,2024/02/18 00:00:00+00,2024/02/18 00:00:00+00,2024/02/18 00:00:00+00,706
-152.909015,58.059052,AK,Aleneva,58.059052,-152.909015,2024/02/18 00:00:00+00,2024/02/18 00:00:00+00,2024/02/18 00:00:00+00,707
-156.083829,62.982698,AK,Takotna,62.982698,-156.083829,2024/02/18 00:00:00+00,2024/02/18 00:00:00+00,2024/02/18 00:00:00+00,708
-152.583016,66.542002,AK,Allakaket,66.542002,-152.583016,2024/02/18 00:00:00+00,2024/02/18 00:00:00+00,2024/02/18 00:00:00+00,709
-149.923928,62.309515,AK,Talkeetna,62.309515,-149.923928,2024/02/18 00:00:00+00,2024/02/18 00:00:00+00,2024/02/18 00:00:00+00,710
-157.887097,67.090944,AK,Ambler,67.090944,-157.887097,2024/02/18 00:00:00+00,2024/02/18 00:00:00+00,2024/02/18 00:00:00+00,711
-143.486599,63.328691,AK,Tanacross,63.328691,-143.486599,2024/02/18 00:00:00+00,2024/02/18 00:00:00+00,2024/02/18 00:00:00+00,712
-149.42774,61.657244,AK,Tanaina,61.657244,-149.42774,2024/02/18 00:00:00+00,2024/02/18 00:00:00+00,2024/02/18 00:00:00+00,713
-151.697066,68.149752,AK,Anaktuvuk Pass,68.149752,-151.697066,2024/02/18 00:00:00+00,2024/02/18 00:00:00+00,2024/02/18 00:00:00+00,714
-152.055102,65.184004,AK,Tanana,65.184004,-152.055102,2024/02/18 00:00:00+00,2024/02/18 00:00:00+00,2024/02/18 00:00:00+00,715
-146.668561,60.894438,AK,Tatitlek,60.894438,-146.668561,2024/02/18 00:00:00+00,2024/02/18 00:00:00+00,2024/02/18 00:00:00+00,716
-145.443031,62.050272,AK,Tazlina,62.050272,-145.443031,2024/02/18 00:00:00+00,2024/02/18 00:00:00+00,2024/02/18 00:00:00+00,717
-149.284329,61.17425,AK,Anchorage,61.17425,-149.284329,2024/02/18 00:00:00+00,2024/02/18 00:00:00+00,2024/02/18 00:00:00+00,718
-166.352133,65.252359,AK,Teller,65.252359,-166.352133,2024/02/18 00:00:00+00,2024/02/18 00:00:00+00,2024/02/18 00:00:00+00,719
-151.695697,59.747364,AK,Anchor Point,59.747364,-151.695697,2024/02/18 00:00:00+00,2024/02/18 00:00:00+00,2024/02/18 00:00:00+00,720
-135.135446,57.790054,AK,Tenakee Springs,57.790054,-135.135446,2024/02/18 18:09:50+00,2024/02/18 18:31:50+00,2024/02/18 18:54:10+00,721
-149.163187,64.308281,AK,Anderson,64.308281,-149.163187,2024/02/18 00:00:00+00,2024/02/18 00:00:00+00,2024/02/18 00:00:00+00,722
-142.504418,63.181865,AK,Tetlin,63.181865,-142.504418,2024/02/18 00:00:00+00,2024/02/18 00:00:00+00,2024/02/18 00:00:00+00,723
-134.478357,57.441257,AK,Angoon,57.441257,-134.478357,2024/02/18 18:08:20+00,2024/02/18 18:31:50+00,2024/02/18 18:55:50+00,724
-132.535653,55.667027,AK,Thorne Bay,55.667027,-132.535653,2024/02/18 18:02:10+00,2024/02/18 18:30:50+00,2024/02/18 19:00:20+00,725
-159.547427,61.578825,AK,Aniak,61.578825,-159.547427,2024/02/18 00:00:00+00,2024/02/18 00:00:00+00,2024/02/18 00:00:00+00,726
-160.396855,59.052942,AK,Togiak,59.052942,-160.396855,2024/02/18 00:00:00+00,2024/02/18 00:00:00+00,2024/02/18 00:00:00+00,727
-160.215106,62.631627,AK,Anvik,62.631627,-160.215106,2024/02/18 00:00:00+00,2024/02/18 00:00:00+00,2024/02/18 00:00:00+00,728
-143.037871,63.328894,AK,Tok,63.328894,-143.037871,2024/02/18 00:00:00+00,2024/02/18 00:00:00+00,2024/02/18 00:00:00+00,729
-145.401362,68.165374,AK,Arctic Village,68.165374,-145.401362,2024/02/18 00:00:00+00,2024/02/18 00:00:00+00,2024/02/18 00:00:00+00,730
-165.106204,60.528046,AK,Toksook Bay,60.528046,-165.106204,2024/02/18 00:00:00+00,2024/02/18 00:00:00+00,2024/02/18 00:00:00+00,731
-174.213452,52.211546,AK,Atka,52.211546,-174.213452,2024/02/18 00:00:00+00,2024/02/18 00:00:00+00,2024/02/18 00:00:00+00,732
-146.12031,62.067821,AK,Tolsona,62.067821,-146.12031,2024/02/18 00:00:00+00,2024/02/18 00:00:00+00,2024/02/18 00:00:00+00,733
-162.280302,60.862755,AK,Atmautluak,60.862755,-162.280302,2024/02/18 00:00:00+00,2024/02/18 00:00:00+00,2024/02/18 00:00:00+00,734
-145.110079,61.530342,AK,Tonsina,61.530342,-145.110079,2024/02/18 00:00:00+00,2024/02/18 00:00:00+00,2024/02/18 00:00:00+00,735
-157.325459,70.480786,AK,Atqasuk,70.480786,-157.325459,2024/02/18 00:00:00+00,2024/02/18 00:00:00+00,2024/02/18 00:00:00+00,736
-150.407836,62.415358,AK,Trapper Creek,62.415358,-150.407836,2024/02/18 00:00:00+00,2024/02/18 00:00:00+00,2024/02/18 00:00:00+00,737
173.256076,52.880248,AK,Attu Station,52.880248,173.256076,2024/02/18 00:00:00+00,2024/02/18 00:00:00+00,2024/02/18 00:00:00+00,738
-160.938062,61.104491,AK,Tuluksak,61.104491,-160.938062,2024/02/18 00:00:00+00,2024/02/18 00:00:00+00,2024/02/18 00:00:00+00,739
-147.385129,64.800081,AK,Badger,64.800081,-147.385129,2024/02/18 00:00:00+00,2024/02/18 00:00:00+00,2024/02/18 00:00:00+00,740
-162.669682,60.410269,AK,Tuntutuliak,60.410269,-162.669682,2024/02/18 00:00:00+00,2024/02/18 00:00:00+00,2024/02/18 00:00:00+00,741
-149.369779,60.20806,AK,Bear Creek,60.20806,-149.369779,2024/02/18 00:00:00+00,2024/02/18 00:00:00+00,2024/02/18 00:00:00+00,742
-165.127266,60.607302,AK,Tununak,60.607302,-165.127266,2024/02/18 00:00:00+00,2024/02/18 00:00:00+00,2024/02/18 00:00:00+00,743
-147.287756,66.384745,AK,Beaver,66.384745,-147.287756,2024/02/18 00:00:00+00,2024/02/18 00:00:00+00,2024/02/18 00:00:00+00,744
-160.280615,59.081816,AK,Twin Hills,59.081816,-160.280615,2024/02/18 00:00:00+00,2024/02/18 00:00:00+00,2024/02/18 00:00:00+00,745
-147.089884,64.890845,AK,Two Rivers,64.890845,-147.089884,2024/02/18 00:00:00+00,2024/02/18 00:00:00+00,2024/02/18 00:00:00+00,746
-151.338909,61.099425,AK,Tyonek,61.099425,-151.338909,2024/02/18 00:00:00+00,2024/02/18 00:00:00+00,2024/02/18 00:00:00+00,747
-156.994926,57.64738,AK,Ugashik,57.64738,-156.994926,2024/02/18 00:00:00+00,2024/02/18 00:00:00+00,2024/02/18 00:00:00+00,748
-160.796775,63.894206,AK,Unalakleet,63.894206,-160.796775,2024/02/18 00:00:00+00,2024/02/18 00:00:00+00,2024/02/18 00:00:00+00,749
-166.529029,53.910255,AK,Unalaska,53.910255,-166.529029,2024/02/18 00:00:00+00,2024/02/18 00:00:00+00,2024/02/18 00:00:00+00,750
-160.3492,61.53957,AK,Upper Kalskag,61.53957,-160.3492,2024/02/18 00:00:00+00,2024/02/18 00:00:00+00,2024/02/18 00:00:00+00,751
-156.798246,71.253861,AK,Utqiaġvik,71.253861,-156.798246,2024/02/18 00:00:00+00,2024/02/18 00:00:00+00,2024/02/18 00:00:00+00,752
-146.317179,61.083621,AK,Valdez,61.083621,-146.317179,2024/02/18 00:00:00+00,2024/02/18 00:00:00+00,2024/02/18 00:00:00+00,753
-146.374273,67.020691,AK,Venetie,67.020691,-146.374273,2024/02/18 00:00:00+00,2024/02/18 00:00:00+00,2024/02/18 00:00:00+00,754
-159.985214,70.658232,AK,Wainwright,70.658232,-159.985214,2024/02/18 00:00:00+00,2024/02/18 00:00:00+00,2024/02/18 00:00:00+00,755
-168.068313,65.613232,AK,Wales,65.613232,-168.068313,2024/02/18 00:00:00+00,2024/02/18 00:00:00+00,2024/02/18 00:00:00+00,756
-149.46079,61.581136,AK,Wasilla,61.581136,-149.46079,2024/02/18 00:00:00+00,2024/02/18 00:00:00+00,2024/02/18 00:00:00+00,757
-133.067469,56.082115,AK,Whale Pass,56.082115,-133.067469,2024/02/18 18:03:40+00,2024/02/18 18:31:00+00,2024/02/18 18:59:00+00,758
-163.412753,64.682359,AK,White Mountain,64.682359,-163.412753,2024/02/18 00:00:00+00,2024/02/18 00:00:00+00,2024/02/18 00:00:00+00,759
-145.906413,64.152772,AK,Whitestone,64.152772,-145.906413,2024/02/18 00:00:00+00,2024/02/18 00:00:00+00,2024/02/18 00:00:00+00,760
-135.409332,58.058337,AK,Whitestone Logging Camp,58.058337,-135.409332,2024/02/18 18:10:50+00,2024/02/18 18:32:00+00,2024/02/18 18:53:40+00,761
-148.663713,60.777318,AK,Whittier,60.777318,-148.663713,2024/02/18 00:00:00+00,2024/02/18 00:00:00+00,2024/02/18 00:00:00+00,762
-149.620229,61.886957,AK,Willow,61.886957,-149.620229,2024/02/18 00:00:00+00,2024/02/18 00:00:00+00,2024/02/18 00:00:00+00,763
-145.198597,61.830234,AK,Willow Creek,61.830234,-145.198597,2024/02/18 00:00:00+00,2024/02/18 00:00:00+00,2024/02/18 00:00:00+00,764
-150.159009,67.481332,AK,Wiseman,67.481332,-150.159009,2024/02/18 00:00:00+00,2024/02/18 00:00:00+00,2024/02/18 00:00:00+00,765
-152.684656,57.687002,AK,Womens Bay,57.687002,-152.684656,2024/02/18 00:00:00+00,2024/02/18 00:00:00+00,2024/02/18 00:00:00+00,766
-132.026788,56.180779,AK,Wrangell,56.180779,-132.026788,2024/02/18 18:03:10+00,2024/02/18 18:32:00+00,2024/02/18 19:01:30+00,767
-139.606191,59.563588,AK,Yakutat,59.563588,-139.606191,2024/02/18 18:22:00+00,2024/02/18 18:31:10+00,2024/02/18 18:40:20+00,768
-113.167329,33.9374,AZ,Aguila,33.9374,-113.167329,2024/02/18 17:09:00+00,2024/02/18 18:19:20+00,2024/02/18 19:33:10+00,769
-112.883874,32.392279,AZ,Ajo,32.392279,-112.883874,2024/02/18 17:05:40+00,2024/02/18 18:17:00+00,2024/02/18 19:32:10+00,770
-112.009078,32.287326,AZ,Ak Chin,32.287326,-112.009078,2024/02/18 17:06:00+00,2024/02/18 18:18:00+00,2024/02/18 19:34:00+00,771
-112.080875,33.019602,AZ,Ak-Chin Village,33.019602,-112.080875,2024/02/18 17:07:40+00,2024/02/18 18:19:20+00,2024/02/18 19:34:30+00,772
-113.500313,34.255851,AZ,Alamo Lake,34.255851,-113.500313,2024/02/18 17:09:30+00,2024/02/18 18:19:20+00,2024/02/18 19:32:50+00,773
-112.558394,31.816919,AZ,Ali Chuk,31.816919,-112.558394,2024/02/18 17:04:30+00,2024/02/18 18:16:30+00,2024/02/18 19:32:10+00,774
-111.801625,31.911528,AZ,Ali Chukson,31.911528,-111.801625,2024/02/18 17:05:20+00,2024/02/18 18:17:40+00,2024/02/18 19:33:50+00,775
-111.780387,31.902547,AZ,Ali Molina,31.902547,-111.780387,2024/02/18 17:05:10+00,2024/02/18 18:17:40+00,2024/02/18 19:34:00+00,776
-109.143696,33.845523,AZ,Alpine,33.845523,-109.143696,2024/02/18 17:11:50+00,2024/02/18 18:25:10+00,2024/02/18 19:41:30+00,777
-111.060803,31.697358,AZ,Amado,31.697358,-111.060803,2024/02/18 17:05:20+00,2024/02/18 18:18:30+00,2024/02/18 19:35:10+00,778
-112.034963,32.374193,AZ,Anegam,32.374193,-112.034963,2024/02/18 17:06:10+00,2024/02/18 18:18:10+00,2024/02/18 19:34:00+00,779
-113.808288,35.422991,AZ,Antares,35.422991,-113.808288,2024/02/18 17:12:10+00,2024/02/18 18:21:00+00,2024/02/18 19:33:10+00,780
-112.126999,33.846766,AZ,Anthem,33.846766,-112.126999,2024/02/18 17:09:30+00,2024/02/18 18:20:40+00,2024/02/18 19:35:20+00,781
